stop_id,stop_code,stop_name,stop_desc,stop_lat,stop_lon,zone_id,stop_url,location_type,parent_station
80004251,04251,JB Sentral,CIQ (Motorcycles and Bicycles- Johor Bukit Timbalan- Malaysia Johor- Malaysia,1.46352,103.76496,80004251,http://otp.transitos.io/otpws/api/cities/2/index/stops/1:80004251,0,
80011298,11298,Wisma Peladang,BA:Wisma Peladang,1.45602,103.7654,80011298,http://otp.transitos.io/otpws/api/cities/2/index/stops/1:80011298,0,
80011568,11568,Opp Pejabat Pos Besar,BA:Opp Pejabat Pos Besar,1.45487,103.76126,80011568,http://otp.transitos.io/otpws/api/cities/2/index/stops/1:80011568,0,
80013277,13277,Opp Johor Tourist Information Center,BA:Opp Johor Tourist Information Center,1.45723,103.75915,80013277,http://otp.transitos.io/otpws/api/cities/2/index/stops/1:80013277,0,
80013278,13278,Opp Menara TH,BA:Opp Menara TH,1.45782,103.75904,80013278,http://otp.transitos.io/otpws/api/cities/2/index/stops/1:80013278,0,
80013279,13279,Opp Wisma Persekutuan,BA:Opp Wisma Persekutuan,1.45996,103.75839,80013279,http://otp.transitos.io/otpws/api/cities/2/index/stops/1:80013279,0,
80013280,13280,Opp Sekolah Kebangsaan IJ Convent,BA:Opp Sekolah Kebangsaan IJ Convent,1.46386,103.75489,80013280,http://otp.transitos.io/otpws/api/cities/2/index/stops/1:80013280,0,
80013281,13281,Opp Pusat Khidmat Pelanggan TNB JB,BA:Opp Pusat Khidmat Pelanggan TNB JB,1.46653,103.75269,80013281,http://otp.transitos.io/otpws/api/cities/2/index/stops/1:80013281,0,
80003046,03046,Opp IPK Johor,Tebrau Highway- Malaysia Kampung Wadi Hana- Malaysia Johor- Malaysia,1.47642,103.76329,80003046,http://otp.transitos.io/otpws/api/cities/2/index/stops/1:80003046,0,
80003243,03243,Grand Paragon Hotel,Jalan Harimau- Johor Century Garden- Malaysia Johor- Malaysia,1.48056,103.76221,80003243,http://otp.transitos.io/otpws/api/cities/2/index/stops/1:80003243,0,
80004281,04281,KSL City,Jalan Seladang- Malaysia Kampung Wadi Hana- Malaysia Johor Bahru,1.48571,103.76297,80004281,http://otp.transitos.io/otpws/api/cities/2/index/stops/1:80004281,0,
80004286,04286,Opp Holiday Plaza,Car Park (Holiday Plaza- Johor Century Garden- Malaysia Johor- Malaysia,1.48807,103.75941,80004286,http://otp.transitos.io/otpws/api/cities/2/index/stops/1:80004286,0,
80013276,13276,Pusat Latihan JPJ,BA:Pusat Latihan JPJ,1.4834116731187472,103.754095,80013276,http://otp.transitos.io/otpws/api/cities/2/index/stops/1:80013276,0,
80004289,04289,Danga City Mall,Skudai Highway- Johor Kampung Ngee Heng- Malaysia Johor- Malaysia,1.4758,103.75446,80004289,http://otp.transitos.io/otpws/api/cities/2/index/stops/1:80004289,0,
80012159,12159,Pusat Khidmat Pelanggan TNB @ Johor Bahr,BA:Pusat Khidmat Pelanggan TNB @ Johor Bahr,1.46692,103.75249,80012159,http://otp.transitos.io/otpws/api/cities/2/index/stops/1:80012159,0,
80012158,12158,Sekolah Kebangsaan IJ Convent,BA:Sekolah Kebangsaan IJ Convent,1.46453,103.75429,80012158,http://otp.transitos.io/otpws/api/cities/2/index/stops/1:80012158,0,
80012157,12157,Wisma Persekutuan,BA:Wisma Persekutuan,1.46062,103.75777,80012157,http://otp.transitos.io/otpws/api/cities/2/index/stops/1:80012157,0,
80012156,12156,Menara TH,BA:Menara TH,1.45822,103.75896,80012156,http://otp.transitos.io/otpws/api/cities/2/index/stops/1:80012156,0,
80008097,08097,Johor Tourist Information Center,Jalan Ayer Molek Jalan Ibrahim Johor,1.4568,103.75929,80008097,http://otp.transitos.io/otpws/api/cities/2/index/stops/1:80008097,0,
80004252,04252,Pejabat Pos Besar,Jalan Dato Onn- Johor Bukit Timbalan- Malaysia Johor- Malaysia,1.45546,103.76188,80004252,http://otp.transitos.io/otpws/api/cities/2/index/stops/1:80004252,0,
80011351,11351,Jb Sentral 2,BA:Jb Sentral 2,1.46297,103.76529,80011351,http://otp.transitos.io/otpws/api/cities/2/index/stops/1:80011351,0,
80004488,04488,Terminal Bas Masai,Jalan Masai Lama Taman Masai Utama Johor- Malaysia,1.48682,103.88541,80004488,http://otp.transitos.io/otpws/api/cities/2/index/stops/1:80004488,0,
80011515,11515,JNT Taman Masai Utama,BA:JNT Taman Masai Utama,1.4880839968651847,103.88153150031668,80011515,http://otp.transitos.io/otpws/api/cities/2/index/stops/1:80011515,0,
80011516,11516,Opp Kampung Baru Masai,BA:Opp Kampung Baru Masai,1.4904403056385378,103.88084737897998,80011516,http://otp.transitos.io/otpws/api/cities/2/index/stops/1:80011516,0,
80002872,02872,Dewanraya Bandar Seri Alam Jalan Suria,Jalan Masai Lama- Johor Taman Rinting- Malaysia Johor- Malaysia,1.49621,103.88088,80002872,http://otp.transitos.io/otpws/api/cities/2/index/stops/1:80002872,0,
80002873,02873,Jalan Suria 80,Jalan Masai Lama- Johor Taman Rinting- Malaysia Johor- Malaysia,1.49608,103.88322,80002873,http://otp.transitos.io/otpws/api/cities/2/index/stops/1:80002873,0,
80011633,11633,SK Seri Alam 2,BA:SK Seri Alam 2,1.49544,103.88458,80011633,http://otp.transitos.io/otpws/api/cities/2/index/stops/1:80011633,0,
80002859,02859,Pangsapuri Sri Intan,Jalan Tasek- Johor Taman Rinting- Malaysia Johor- Malaysia,1.49743,103.87618,80002859,http://otp.transitos.io/otpws/api/cities/2/index/stops/1:80002859,0,
80002860,02860,Jalan Tasek 10,Jalan Tasek 1- Johor Taman Rinting- Malaysia Johor- Malaysia,1.50048,103.8799,80002860,http://otp.transitos.io/otpws/api/cities/2/index/stops/1:80002860,0,
80002861,02861,Jalan Tasek 15,Persiaran Seri Alam- Johor Bandar Baru Seri Alam- Malaysia Johor- Malaysia,1.50046,103.88249,80002861,http://otp.transitos.io/otpws/api/cities/2/index/stops/1:80002861,0,
80002862,02862,Jalan Tasek 20,Persiaran Seri Alam- Johor Bandar Baru Seri Alam- Malaysia Johor- Malaysia,1.5012,103.88461,80002862,http://otp.transitos.io/otpws/api/cities/2/index/stops/1:80002862,0,
80002863,02863,Jalan Tasek 24,Persiaran Seri Alam- Johor Bandar Baru Seri Alam- Malaysia Johor- Malaysia,1.50219,103.88573,80002863,http://otp.transitos.io/otpws/api/cities/2/index/stops/1:80002863,0,
80002866,02866,Pangsapuri Sri Ilham,Persiaran Seri Alam- Johor Bandar Baru Seri Alam- Malaysia Johor- Malaysia,1.50398,103.88519,80002866,http://otp.transitos.io/otpws/api/cities/2/index/stops/1:80002866,0,
80002867,02867,PPR Seri Alam,Persiaran Seri Alam- Johor Taman Flora Heights- Malaysia Johor- Malaysia,1.50785,103.88826,80002867,http://otp.transitos.io/otpws/api/cities/2/index/stops/1:80002867,0,
80002869,02869,Opp Vista Seri Alam,Persiaran Seri Alam- Johor Taman Flora Heights- Malaysia Johor- Malaysia,1.50793,103.88601,80002869,http://otp.transitos.io/otpws/api/cities/2/index/stops/1:80002869,0,
80013282,13282,SJK C NAM HENG,BA:SJK C NAM HENG,1.50316,103.87965,80013282,http://otp.transitos.io/otpws/api/cities/2/index/stops/1:80013282,0,
80007586,07586,Regency Specialist Hospital,Jalan Suria 1- Johor Taman Rinting- Malaysia Johor- Malaysia,1.49699,103.87177,80007586,http://otp.transitos.io/otpws/api/cities/2/index/stops/1:80007586,0,
80002870,02870,Maybank Bandar Seri Alam,Jalan Masai Lama- Johor Taman Rinting- Malaysia Johor- Malaysia,1.49317,103.87432,80002870,http://otp.transitos.io/otpws/api/cities/2/index/stops/1:80002870,0,
80002875,02875,SMK Dato Penggawa Timur,Jalan Masai Lama- Johor Taman Rinting- Malaysia Johor- Malaysia,1.49259,103.87802,80002875,http://otp.transitos.io/otpws/api/cities/2/index/stops/1:80002875,0,
80011498,11498,Kampung Baru Masai,BA:Kampung Baru Masai,1.49044,103.88103,80011498,http://otp.transitos.io/otpws/api/cities/2/index/stops/1:80011498,0,
80011499,11499,OPP JNT Taman Masai Utama,BA:OPP JNT Taman Masai Utama,1.48789,103.88181,80011499,http://otp.transitos.io/otpws/api/cities/2/index/stops/1:80011499,0,
80011746,11746,Terminal Bas Masai 2,BA:Terminal Bas Masai 2,1.48661,103.88494,80011746,http://otp.transitos.io/otpws/api/cities/2/index/stops/1:80011746,0,
80000293,00293,Terminal Kulai,Jalan Lengkongan- Johor Kulai Johor- Malaysia,1.66247,103.59879,80000293,http://otp.transitos.io/otpws/api/cities/2/index/stops/1:80000293,0,
80003138,03138,SMK Munshi Abdullah Kulai,Jalan Tun Abdul Razak- Johor skudai Johor- Malaysia,1.66457,103.59569,80003138,http://otp.transitos.io/otpws/api/cities/2/index/stops/1:80003138,0,
80003137,03137,Jejantas Taman Sri Kulai,Jalan Tun Abdul Razak- Johor skudai Johor- Malaysia,1.66669,103.5913,80003137,http://otp.transitos.io/otpws/api/cities/2/index/stops/1:80003137,0,
80003136,03136,Shell Kulai,Jalan Tun Abdul Razak- Johor skudai Johor- Malaysia,1.66805,103.58817,80003136,http://otp.transitos.io/otpws/api/cities/2/index/stops/1:80003136,0,
80012289,12289,Opp Simpang Jln Sengkang,BA:Opp Simpang Jln Sengkang,1.66891,103.58294,80012289,http://otp.transitos.io/otpws/api/cities/2/index/stops/1:80012289,0,
80008774,08774,Taman Kota Kulai,BA:Taman Kota Kulai,1.66866,103.58029,80008774,http://otp.transitos.io/otpws/api/cities/2/index/stops/1:80008774,0,
80012290,12290,Opp Lotus Kulai,BA:Opp Lotus Kulai,1.6676,103.57679,80012290,http://otp.transitos.io/otpws/api/cities/2/index/stops/1:80012290,0,
80010255,10255,Taman Desa Baiduri,BA:Taman Desa Baiduri,1.66623,103.57721,80010255,http://otp.transitos.io/otpws/api/cities/2/index/stops/1:80010255,0,
80003128,03128,Opp Taman Putri Persiaran Sri Putri 3(1),Persiaran Sri Putri  3 Taman Timur Johor- Malaysia,1.66361,103.57816,80003128,http://otp.transitos.io/otpws/api/cities/2/index/stops/1:80003128,0,
80012292,12292,Stadium Kulai,BA:Stadium Kulai,1.66064,103.57552,80012292,http://otp.transitos.io/otpws/api/cities/2/index/stops/1:80012292,0,
80007761,07761,Opp Econsave Taman Putri,Jalan Sri Putri 8/8- Johor Senai Johor- Malaysia,1.65845,103.57844,80007761,http://otp.transitos.io/otpws/api/cities/2/index/stops/1:80007761,0,
80012293,12293,Opp Taman Putri Persiaran Sri Putri 3(2),BA:Opp Taman Putri Persiaran Sri Putri 3(2),1.65682,103.58255,80012293,http://otp.transitos.io/otpws/api/cities/2/index/stops/1:80012293,0,
80003134,03134,Flat Taman Putri,Jalan Bunga Rose- Johor skudai Johor- Malaysia,1.65378,103.58232,80003134,http://otp.transitos.io/otpws/api/cities/2/index/stops/1:80003134,0,
80012295,12295,Opp Taman Putri Persiaran Sri Putri 3(3),BA:Opp Taman Putri Persiaran Sri Putri 3(3),1.65093,103.58009,80012295,http://otp.transitos.io/otpws/api/cities/2/index/stops/1:80012295,0,
80003130,03130,Taman Putri Kulai,Jalan Sri Putri 10/1- Johor Senai Johor- Malaysia,1.65132,103.57801,80003130,http://otp.transitos.io/otpws/api/cities/2/index/stops/1:80003130,0,
80003133,03133,OPP SMK Kota Kulai,Jalan Sri Putri 12- Johor skudai Johor- Malaysia,1.65393,103.57565,80003133,http://otp.transitos.io/otpws/api/cities/2/index/stops/1:80003133,0,
80012297,12297,Perumahan Flat Cengal,BA:Perumahan Flat Cengal,1.65417,103.5739,80012297,http://otp.transitos.io/otpws/api/cities/2/index/stops/1:80012297,0,
80005516,05516,Terminal Putri Kulai,Jalan Sawah- Johor Taman Putri Kulai Johor,1.65547,103.57217,80005516,http://otp.transitos.io/otpws/api/cities/2/index/stops/1:80005516,0,
80012298,12298,Opp Perumahan Flat Cengal,BA:Opp Perumahan Flat Cengal,1.65523,103.57459,80012298,http://otp.transitos.io/otpws/api/cities/2/index/stops/1:80012298,0,
80003132,03132,SMK Kota Kulai,Jalan Bunga Rose- Johor skudai Johor- Malaysia,1.65426,103.5754,80003132,http://otp.transitos.io/otpws/api/cities/2/index/stops/1:80003132,0,
80012296,12296,Taman Putri Persiaran Sri Putri 3(3),BA:Taman Putri Persiaran Sri Putri 3(3),1.65097,103.57995,80012296,http://otp.transitos.io/otpws/api/cities/2/index/stops/1:80012296,0,
80003129,03129,Opp Flat Taman Putri,Jalan Bunga Rose- Johor skudai Johor- Malaysia,1.65361,103.58214,80003129,http://otp.transitos.io/otpws/api/cities/2/index/stops/1:80003129,0,
80012294,12294,Taman Putri Persiaran Sri Putri 3(2),BA:Taman Putri Persiaran Sri Putri 3(2),1.65695,103.58219,80012294,http://otp.transitos.io/otpws/api/cities/2/index/stops/1:80012294,0,
80007762,07762,Econsave Taman Putri,Jalan Sri Putri 8/8- Johor Senai Johor- Malaysia,1.65842,103.57844,80007762,http://otp.transitos.io/otpws/api/cities/2/index/stops/1:80007762,0,
80003135,03135,Taman Putri Persiaran Sri Putri 3(1),Jalan Saga- Johor Senai Johor- Malaysia,1.66303,103.57765,80003135,http://otp.transitos.io/otpws/api/cities/2/index/stops/1:80003135,0,
80010256,10256,Opp Jalan Sri Putri 1/15,BA:Opp Jalan Sri Putri 1/15,1.66662,103.57665,80010256,http://otp.transitos.io/otpws/api/cities/2/index/stops/1:80010256,0,
80012291,12291,Lotus Kulai,BA:Lotus Kulai,1.66745,103.57659,80012291,http://otp.transitos.io/otpws/api/cities/2/index/stops/1:80012291,0,
80012288,12288,Opp Taman Kota Kulai,BA:Opp Taman Kota Kulai,1.66877,103.58028,80012288,http://otp.transitos.io/otpws/api/cities/2/index/stops/1:80012288,0,
80003126,03126,Spg Jln Sengkang,Jalan Tun Abdul Razak- Johor skudai Johor- Malaysia,1.66906,103.58279,80003126,http://otp.transitos.io/otpws/api/cities/2/index/stops/1:80003126,0,
80003125,03125,OPP Shell Kulai,Jalan Tun Abdul Razak- Johor skudai Johor- Malaysia,1.66826,103.58785,80003125,http://otp.transitos.io/otpws/api/cities/2/index/stops/1:80003125,0,
80003124,03124,Opp Jejantas Taman Sri Kulai,Jalan Tun Abdul Razak- Johor skudai Johor- Malaysia,1.66658,103.59165,80003124,http://otp.transitos.io/otpws/api/cities/2/index/stops/1:80003124,0,
80011286,11286,Opp SMK Munshi Abdullah,BA:Opp SMK Munshi Abdullah,1.66448,103.59633,80011286,http://otp.transitos.io/otpws/api/cities/2/index/stops/1:80011286,0,
80004257,04257,Jalan Tun Abdul Razak,Jalan Tun Abdul Razak- Johor Taman Dato Onn- Malaysia Johor- Malaysia,1.48037,103.75285,80004257,http://otp.transitos.io/otpws/api/cities/2/index/stops/1:80004257,0,
80004259,04259,Opp Bomba Jalan Tun Abdul Razak,Jalan Tun Abdul Razak- Johor Taman Dato Onn- Malaysia Johor- Malaysia,1.48499,103.74986,80004259,http://otp.transitos.io/otpws/api/cities/2/index/stops/1:80004259,0,
80012161,12161,Opp Menara Kastam Johor Bahru,BA:Opp Menara Kastam Johor Bahru,1.48641,103.74639,80012161,http://otp.transitos.io/otpws/api/cities/2/index/stops/1:80012161,0,
80012162,12162,Opp Perkeso Johor Bahru,BA:Opp Perkeso Johor Bahru,1.48717,103.7452,80012162,http://otp.transitos.io/otpws/api/cities/2/index/stops/1:80012162,0,
80012165,12165,Opp Hospital Pakar Puteri,BA:Opp Hospital Pakar Puteri,1.49019,103.74069,80012165,http://otp.transitos.io/otpws/api/cities/2/index/stops/1:80012165,0,
80011357,11357,OPP DEWAN JKR JOHOR BAHRU,BA:OPP DEWAN JKR JOHOR BAHRU,1.49164263335481,103.740645515202,80011357,http://otp.transitos.io/otpws/api/cities/2/index/stops/1:80011357,0,
80004270,04270,Larkin Sentral,Jalan Garuda- Malaysia Johor Bahru Johor Bahru,1.49487,103.74263,80004270,http://otp.transitos.io/otpws/api/cities/2/index/stops/1:80004270,0,
80012266,12266,Jejantas Datin Halimah,BA:Jejantas Datin Halimah,1.49607,103.73822,80012266,http://otp.transitos.io/otpws/api/cities/2/index/stops/1:80012266,0,
80008298,08298,Apartment Larkin Indah,Jalan Datin Halimah- Johor Jalan kasawari Johor,1.49804,103.73695,80008298,http://otp.transitos.io/otpws/api/cities/2/index/stops/1:80008298,0,
80003116,03116,Kolej Vokasional ERT Azizah,Jalan Datin Halimah- Johor Kampung Aman- Malaysia Johor- Malaysia,1.50188,103.7353,80003116,http://otp.transitos.io/otpws/api/cities/2/index/stops/1:80003116,0,
80008037,08037,Kondominium Datin Halimah,No results No results No results,1.50346,103.73481,80008037,http://otp.transitos.io/otpws/api/cities/2/index/stops/1:80008037,0,
80003115,03115,Pejabat Fama Negeri Johor,Jalan Datin Halimah- Johor Kampung Aman- Malaysia Johor- Malaysia,1.50582,103.73362,80003115,http://otp.transitos.io/otpws/api/cities/2/index/stops/1:80003115,0,
80012270,12270,BHP Tampoi,BA:BHP Tampoi,1.51107,103.73334,80012270,http://otp.transitos.io/otpws/api/cities/2/index/stops/1:80012270,0,
80012272,12272,Opp 23 Motorspot,BA:Opp 23 Motorspot,1.51228,103.73371,80012272,http://otp.transitos.io/otpws/api/cities/2/index/stops/1:80012272,0,
80012275,12275,Malaya Glass Factory,BA:Malaya Glass Factory,1.51364,103.73534,80012275,http://otp.transitos.io/otpws/api/cities/2/index/stops/1:80012275,0,
80005497,05497,CIDB Johor,Jalan Tampoi- Johor Kampung Majidee Baru- Malaysia Johor- Malaysia,1.51479,103.73728,80005497,http://otp.transitos.io/otpws/api/cities/2/index/stops/1:80005497,0,
80012277,12277,Opp Simpang 4 Kampung Ungku Mohsin,BA:Opp Simpang 4 Kampung Ungku Mohsin,1.51531,103.74072,80012277,http://otp.transitos.io/otpws/api/cities/2/index/stops/1:80012277,0,
80012279,12279,Opp Paragon Market Place,BA:Opp Paragon Market Place,1.516,103.74275,80012279,http://otp.transitos.io/otpws/api/cities/2/index/stops/1:80012279,0,
80007786,07786,Shell Taman Gembira,Jalan Tampoi- Johor Kampung Majidee Baru- Malaysia Johor- Malaysia,1.51809,103.74445,80007786,http://otp.transitos.io/otpws/api/cities/2/index/stops/1:80007786,0,
80012280,12280,Petron Taman Gembira,BA:Petron Taman Gembira,1.51955,103.74556,80012280,http://otp.transitos.io/otpws/api/cities/2/index/stops/1:80012280,0,
80012283,12283,F&N,BA:F&N,1.52076,103.74687,80012283,http://otp.transitos.io/otpws/api/cities/2/index/stops/1:80012283,0,
80012285,12285,Opp MSU Jalan Tampoi,BA:Opp MSU Jalan Tampoi,1.5209,103.75063,80012285,http://otp.transitos.io/otpws/api/cities/2/index/stops/1:80012285,0,
80007784,07784, Opp Jejantas Kampung Melayu,Jalan Tampoi- Johor Kampung Majidee Baru- Malaysia Johor- Malaysia,1.51862,103.75315,80007784,http://otp.transitos.io/otpws/api/cities/2/index/stops/1:80007784,0,
80007781,07781,Opp Jejantas Kampung Ubi,Jalan Tampoi- Johor Kampung Majidee Baru- Malaysia Johor- Malaysia,1.51839,103.75644,80007781,http://otp.transitos.io/otpws/api/cities/2/index/stops/1:80007781,0,
80012287,12287,Al Mizan,BA:Al Mizan,1.51877,103.75876,80012287,http://otp.transitos.io/otpws/api/cities/2/index/stops/1:80012287,0,
80003072,03072,Pasar Borong Pandan,Tebrau Highway- Johor Taman Sri Pandan- Malaysia Johor- Malaysia,1.52263,103.76554,80003072,http://otp.transitos.io/otpws/api/cities/2/index/stops/1:80003072,0,
80004191,04191,Petron Pandan,Tebrau Highway- Johor Taman Sri Pandan- Malaysia Johor- Malaysia,1.5249,103.77105,80004191,http://otp.transitos.io/otpws/api/cities/2/index/stops/1:80004191,0,
80003016,03016,Shell Pandan,Jalan Pandan- Johor Kawasan Industri Pandan- Malaysia Johor- Malaysia,1.52682,103.77553,80003016,http://otp.transitos.io/otpws/api/cities/2/index/stops/1:80003016,0,
80004189,04189,OPP The Store Pandan,Jalan Pandan- Johor Kawasan Industri Pandan- Malaysia Johor- Malaysia,1.53212,103.78216,80004189,http://otp.transitos.io/otpws/api/cities/2/index/stops/1:80004189,0,
80011088,11088,Smart Pandan,BA:Smart Pandan,1.5336,103.78338,80011088,http://otp.transitos.io/otpws/api/cities/2/index/stops/1:80011088,0,
80003172,03172,OPP Shell Bakawali,Jalan Pandan- Johor Kawasan Industri Pandan- Malaysia Johor- Malaysia,1.54323,103.79129,80003172,http://otp.transitos.io/otpws/api/cities/2/index/stops/1:80003172,0,
80012166,12166,Shell Tebrau,BA:Shell Tebrau,1.54705,103.7955,80012166,http://otp.transitos.io/otpws/api/cities/2/index/stops/1:80012166,0,
80004195,04195,AEON Tebrau Jalan Tebrau,Jalan Pandan- Johor Taman Desa Tebrau- Malaysia Johor- Malaysia,1.54878,103.79812,80004195,http://otp.transitos.io/otpws/api/cities/2/index/stops/1:80004195,0,
80008196,08196,IKEA Tebrau Jalan Tebrau,Jalan Kota Tinggi AEON Tebrau Johor,1.55211,103.80101,80008196,http://otp.transitos.io/otpws/api/cities/2/index/stops/1:80008196,0,
80003209,03209,OPP Taman Desa Jaya,Jalan Kota Tinggi- Johor Taman Desa Tebrau- Malaysia Johor- Malaysia,1.55742,103.8011,80003209,http://otp.transitos.io/otpws/api/cities/2/index/stops/1:80003209,0,
80003210,03210,OPP Taman Desa Cemerlang,Jalan Kota Tinggi- Johor Taman Desa Cemerlang- Malaysia Johor- Malaysia,1.56612,103.80811,80003210,http://otp.transitos.io/otpws/api/cities/2/index/stops/1:80003210,0,
80003211,03211,OPP Kuil Arulmigu Sri Muniswarar,Jalan Kota Tinggi- Johor Taman Puteri Wangsa- Malaysia Johor- Malaysia,1.56895,103.81229,80003211,http://otp.transitos.io/otpws/api/cities/2/index/stops/1:80003211,0,
80008923,08923,KFC Taman Puteri Wangsa,BA:KFC Taman Puteri Wangsa,1.57196,103.81358,80008923,http://otp.transitos.io/otpws/api/cities/2/index/stops/1:80008923,0,
80003213,03213,Taman Dato Chellam,Jalan Kota Tinggi- Johor Taman Zamrud- Malaysia Johor- Malaysia,1.57694,103.8179,80003213,http://otp.transitos.io/otpws/api/cities/2/index/stops/1:80003213,0,
80003214,03214,Taman Gunung Emas,Jalan Kota Tinggi- Johor Taman Zamrud- Malaysia Johor- Malaysia,1.58793,103.81809,80003214,http://otp.transitos.io/otpws/api/cities/2/index/stops/1:80003214,0,
80012180,12180,NSK Ulu Tiram,BA:NSK Ulu Tiram,1.59493,103.82056,80012180,http://otp.transitos.io/otpws/api/cities/2/index/stops/1:80012180,0,
80003186,03186,Perhentian Bas dan Kereta Sewa Ulu Tiram,Jalan Duku- Johor Taman Tiram Baru- Malaysia Johor- Malaysia,1.59808,103.82244,80003186,http://otp.transitos.io/otpws/api/cities/2/index/stops/1:80003186,0,
80007766,07766,Taman Tiram Jaya,Jalan Kota Tinggi- Johor Taman Tiram Jaya- Malaysia Johor- Malaysia,1.60307,103.82071,80007766,http://otp.transitos.io/otpws/api/cities/2/index/stops/1:80007766,0,
80007763,07763,Todays Mall,Jalan Kota Tinggi- Johor Taman Tiram Jaya- Malaysia Johor- Malaysia,1.60837,103.8218,80007763,http://otp.transitos.io/otpws/api/cities/2/index/stops/1:80007763,0,
80007757,07757,OPP Pulada,Jalan Jemaluang- Johor Ulu Tiram Johor- Malaysia,1.63064,103.82491,80007757,http://otp.transitos.io/otpws/api/cities/2/index/stops/1:80007757,0,
80012170,12170,TKPM Ulu Tiram,BA:TKPM Ulu Tiram,1.63439,103.829,80012170,http://otp.transitos.io/otpws/api/cities/2/index/stops/1:80012170,0,
80004491,04491,Opp Hentian Bas Taman Sri Saujana,Jalan Jemaluang- Johor Taman Saujana Johor- Malaysia,1.67211,103.85071,80004491,http://otp.transitos.io/otpws/api/cities/2/index/stops/1:80004491,0,
80010305,10305,Opp Petronas Taman Sri Saujana,BA:Opp Petronas Taman Sri Saujana,1.67563,103.85224,80010305,http://otp.transitos.io/otpws/api/cities/2/index/stops/1:80010305,0,
80003203,03203,Ladang Tai Tak,Jalan Jemaluang- Johor ulu tiram Johor- Malaysia,1.68594,103.86432,80003203,http://otp.transitos.io/otpws/api/cities/2/index/stops/1:80003203,0,
80004492,04492,Kuil Sri Maha Mariamman,Jalan Jemaluang- Johor Taman Sri Saujana Johor- Malaysia,1.69147,103.86961,80004492,http://otp.transitos.io/otpws/api/cities/2/index/stops/1:80004492,0,
80003204,03204,Kawasan Perindustrian Jalan Johor,Tebrau Highway- Malaysia ulu tiram Johor,1.70071,103.87949,80003204,http://otp.transitos.io/otpws/api/cities/2/index/stops/1:80003204,0,
80012172,12172,Pasar Borong Kota Tinggi,BA:Pasar Borong Kota Tinggi,1.70473,103.87907,80012172,http://otp.transitos.io/otpws/api/cities/2/index/stops/1:80012172,0,
80012174,12174,Gereja Bethany,BA:Gereja Bethany,1.71113,103.88055,80012174,http://otp.transitos.io/otpws/api/cities/2/index/stops/1:80012174,0,
80003205,03205,Taman Kota Intan,Jalan Kota Tinggi-Sungei Rengit- Johor ulu tiram Johor- Malaysia,1.71739,103.88422,80003205,http://otp.transitos.io/otpws/api/cities/2/index/stops/1:80003205,0,
80012176,12176,Taman Sri Lalang,BA:Taman Sri Lalang,1.71905,103.89008,80012176,http://otp.transitos.io/otpws/api/cities/2/index/stops/1:80012176,0,
80010303,10303,Opp Econsave Sri Lalang,BA:Opp Econsave Sri Lalang,1.71939,103.89344,80010303,http://otp.transitos.io/otpws/api/cities/2/index/stops/1:80010303,0,
80003206,03206,SMK Tun Habab,Tebrau Highway- Malaysia ulu tiram Johor,1.7217,103.89742,80003206,http://otp.transitos.io/otpws/api/cities/2/index/stops/1:80003206,0,
80010301,10301,Padang Awam MDKT,BA:Padang Awam MDKT,1.72427,103.89871,80010301,http://otp.transitos.io/otpws/api/cities/2/index/stops/1:80010301,0,
80012178,12178,Jalan Tun Sri Lanang,BA:Jalan Tun Sri Lanang,1.72956,103.90005,80012178,http://otp.transitos.io/otpws/api/cities/2/index/stops/1:80012178,0,
80003208,03208,Terminal Bas Kota Tinggi,Jalan Kota Tinggi-Sungei Rengit- Johor Kota Tinggi Johor- Malaysia,1.72902,103.90209,80003208,http://otp.transitos.io/otpws/api/cities/2/index/stops/1:80003208,0,
80012179,12179,Opp Jalan Tun Sri Lanang,BA:Opp Jalan Tun Sri Lanang,1.72947,103.90009,80012179,http://otp.transitos.io/otpws/api/cities/2/index/stops/1:80012179,0,
80008199,08199,OPP SMK Tun Habab,Jalan Johor Caltex Kota Tinggi Johor,1.72145,103.8972,80008199,http://otp.transitos.io/otpws/api/cities/2/index/stops/1:80008199,0,
80010302,10302,Econsave Sri Lalang,BA:Econsave Sri Lalang,1.71927,103.89346,80010302,http://otp.transitos.io/otpws/api/cities/2/index/stops/1:80010302,0,
80012177,12177,Opp Taman Sri Lalang,BA:Opp Taman Sri Lalang,1.71892,103.8901,80012177,http://otp.transitos.io/otpws/api/cities/2/index/stops/1:80012177,0,
80008200,08200,Opp Taman Kota Intan,Jalan Johor Taman Daiman Jaya Joho,1.71732,103.8844,80008200,http://otp.transitos.io/otpws/api/cities/2/index/stops/1:80008200,0,
80012175,12175,Opp Gereja Bethany,BA:Opp Gereja Bethany,1.71147,103.88072,80012175,http://otp.transitos.io/otpws/api/cities/2/index/stops/1:80012175,0,
80012173,12173,Opp Pasar Borong Kota Tinggi,BA:Opp Pasar Borong Kota Tinggi,1.7052,103.87919,80012173,http://otp.transitos.io/otpws/api/cities/2/index/stops/1:80012173,0,
80008198,08198,Opp Kawasan Perindustrian Jalan Johor,Jalan Johor Rem Estate johor,1.70023,103.87952,80008198,http://otp.transitos.io/otpws/api/cities/2/index/stops/1:80008198,0,
80012171,12171,Opp Kuil Sri Maha Mariamman,BA:Opp Kuil Sri Maha Mariamman,1.69173,103.8701,80012171,http://otp.transitos.io/otpws/api/cities/2/index/stops/1:80012171,0,
80007760,07760,OPP Ladang Tai Tak,Jalan Jemaluang- Johor Jemaluang- Johor Johor- Malaysia,1.686,103.86444,80007760,http://otp.transitos.io/otpws/api/cities/2/index/stops/1:80007760,0,
80010304,10304,Petronas Taman Sri Saujana,BA:Petronas Taman Sri Saujana,1.67567,103.85238,80010304,http://otp.transitos.io/otpws/api/cities/2/index/stops/1:80010304,0,
80003202,03202,Hentian Bas Taman Sri Saujana,Jemaluang- Johor ulu tiram Johor- Malaysia,1.67217,103.85088,80003202,http://otp.transitos.io/otpws/api/cities/2/index/stops/1:80003202,0,
80003201,03201,Opp TKPM Ulu Tiram,Jemaluang- Johor ulu tiram Johor- Malaysia,1.6341,103.82907,80003201,http://otp.transitos.io/otpws/api/cities/2/index/stops/1:80003201,0,
80007758,07758,Pulada,Jemaluang- Johor Ulu Tiram Johor- Malaysia,1.62952,103.82371,80007758,http://otp.transitos.io/otpws/api/cities/2/index/stops/1:80007758,0,
80007764,07764,OPP Todays Mall,Jalan Kota Tinggi- Johor Taman Tiram Jaya- Malaysia Johor- Malaysia,1.60695,103.82202,80007764,http://otp.transitos.io/otpws/api/cities/2/index/stops/1:80007764,0,
80007765,07765,opp Taman Tiram Jaya,Jalan Kota Tinggi- Johor Taman Tiram Jaya- Malaysia Johor- Malaysia,1.60291,103.82083,80007765,http://otp.transitos.io/otpws/api/cities/2/index/stops/1:80007765,0,
80003200,03200,Opp NSK Ulu Tiram,Jalan Kota Tinggi- Johor Taman Zamrud- Malaysia Johor- Malaysia,1.59334,103.82017,80003200,http://otp.transitos.io/otpws/api/cities/2/index/stops/1:80003200,0,
80003198,03198,Opp Taman Gunung Emas,Jalan Kota Tinggi- Johor Taman Zamrud- Malaysia Johor- Malaysia,1.58755,103.8181,80003198,http://otp.transitos.io/otpws/api/cities/2/index/stops/1:80003198,0,
80003197,03197,OPP Taman Dato Chellam,Jalan Kota Tinggi- Johor Taman Zamrud- Malaysia Johor- Malaysia,1.57587,103.81756,80003197,http://otp.transitos.io/otpws/api/cities/2/index/stops/1:80003197,0,
80012169,12169,Opp KFC Taman Puteri Wangsa,BA:Opp KFC Taman Puteri Wangsa,1.57183,103.81368,80012169,http://otp.transitos.io/otpws/api/cities/2/index/stops/1:80012169,0,
80008197,08197,Kuil Arulmigu Sri Muniswarar,Jalan Kota Tinggi Petronas Johor,1.56971,103.81274,80008197,http://otp.transitos.io/otpws/api/cities/2/index/stops/1:80008197,0,
80004196,04196,Taman Desa Cemerlang,Jalan Kota Tinggi- Johor Taman Desa Cemerlang- Malaysia Johor- Malaysia,1.56584,103.80837,80004196,http://otp.transitos.io/otpws/api/cities/2/index/stops/1:80004196,0,
80003193,03193,Taman Desa Jaya,Jalan Kota Tinggi- Johor Taman Desa Tebrau- Malaysia Johor- Malaysia,1.55817,103.80122,80003193,http://otp.transitos.io/otpws/api/cities/2/index/stops/1:80003193,0,
80003179,03179,Opp IKEA Tebrau Jalan Tebrau,Jalan Kota Tinggi- Johor Taman Desa Tebrau- Malaysia Johor- Malaysia,1.55247,103.80138,80003179,http://otp.transitos.io/otpws/api/cities/2/index/stops/1:80003179,0,
80003176,03176,OPP AEON Tebrau Jalan Tebrau,Jalan Pandan- Johor Taman Desa Tebrau- Malaysia Johor- Malaysia,1.54891,103.79877,80003176,http://otp.transitos.io/otpws/api/cities/2/index/stops/1:80003176,0,
80012167,12167,Opp Shell Tebrau,BA:Opp Shell Tebrau,1.54684,103.79545,80012167,http://otp.transitos.io/otpws/api/cities/2/index/stops/1:80012167,0,
80004193,04193,Shell Bakawali,Jalan Pandan- Johor Kawasan Industri Pandan- Malaysia Johor- Malaysia,1.54388,103.792,80004193,http://otp.transitos.io/otpws/api/cities/2/index/stops/1:80004193,0,
80008195,08195,Opp Smart Pandan,Jalan Pandan Pasaraya Smart Johor,1.53383,103.78399,80008195,http://otp.transitos.io/otpws/api/cities/2/index/stops/1:80008195,0,
80003173,03173,The Store Pandan,Jalan Pandan- Johor Kawasan Industri Pandan- Malaysia Johor- Malaysia,1.53165,103.782,80003173,http://otp.transitos.io/otpws/api/cities/2/index/stops/1:80003173,0,
80008194,08194,OPP Shell Pandan,Jalan Pandan Shell Pandan Johor,1.52639,103.77486,80008194,http://otp.transitos.io/otpws/api/cities/2/index/stops/1:80008194,0,
80003015,03015,OPP Petron Pandan,Jalan Pandan- Johor Taman Sri Pandan- Malaysia Johor- Malaysia,1.52486,103.77133,80003015,http://otp.transitos.io/otpws/api/cities/2/index/stops/1:80003015,0,
80003014,03014,OPP Pasar Borong Pandan,Jalan Pandan- Johor Taman Sri Pandan- Malaysia Johor- Malaysia,1.52257,103.7658,80003014,http://otp.transitos.io/otpws/api/cities/2/index/stops/1:80003014,0,
80012286,12286,Opp Al Mizan,BA:Opp Al Mizan,1.5198,103.76002,80012286,http://otp.transitos.io/otpws/api/cities/2/index/stops/1:80012286,0,
80007782,07782,Jejantas Kampung Ubi,Jalan Tampoi- Johor Kampung Majidee Baru- Malaysia Johor- Malaysia,1.51829,103.75546,80007782,http://otp.transitos.io/otpws/api/cities/2/index/stops/1:80007782,0,
80007783,07783,Jenjantas Kampug Melayu,Jalan Tampoi- Johor Kampung Majidee Baru- Malaysia Johor- Malaysia,1.5185,103.75312,80007783,http://otp.transitos.io/otpws/api/cities/2/index/stops/1:80007783,0,
80012284,12284,MSU Jalan Tampoi,BA:MSU Jalan Tampoi,1.5208,103.75059,80012284,http://otp.transitos.io/otpws/api/cities/2/index/stops/1:80012284,0,
80012282,12282,Opp F&N,BA:Opp F&N,1.52065,103.74692,80012282,http://otp.transitos.io/otpws/api/cities/2/index/stops/1:80012282,0,
80012281,12281,Opp Petron Taman Gembira,BA:Opp Petron Taman Gembira,1.51938,103.74577,80012281,http://otp.transitos.io/otpws/api/cities/2/index/stops/1:80012281,0,
80007787,07787,Opp Shell Taman Gembira,Jalan Tampoi- Johor Kampung Majidee Baru- Malaysia Johor- Malaysia,1.51802,103.74456,80007787,http://otp.transitos.io/otpws/api/cities/2/index/stops/1:80007787,0,
80012278,12278,Paragon Market Place,BA:Paragon Market Place,1.51594,103.74284,80012278,http://otp.transitos.io/otpws/api/cities/2/index/stops/1:80012278,0,
80005498,05498,Opp CIDB Johor,Jalan Tampoi- Johor Kampung Majidee Baru- Malaysia Johor- Malaysia,1.51457,103.73727,80005498,http://otp.transitos.io/otpws/api/cities/2/index/stops/1:80005498,0,
80012274,12274,Opp Malaya Glass Factory,BA:Opp Malaya Glass Factory,1.51365,103.73552,80012274,http://otp.transitos.io/otpws/api/cities/2/index/stops/1:80012274,0,
80012273,12273,23 Motorspot,BA:23 Motorspot,1.51219,103.73375,80012273,http://otp.transitos.io/otpws/api/cities/2/index/stops/1:80012273,0,
80012271,12271,Opp BHP Tampoi,BA:Opp BHP Tampoi,1.51121,103.73359,80012271,http://otp.transitos.io/otpws/api/cities/2/index/stops/1:80012271,0,
80012269,12269,Opp Pejabat Fama Negeri Johor,BA:Opp Pejabat Fama Negeri Johor,1.50616,103.73375,80012269,http://otp.transitos.io/otpws/api/cities/2/index/stops/1:80012269,0,
80008192,08192,OPP Kondo Datin Halimah,Jalan Datin Halimah- Johor Percetakan Nasional Malaysia Berhad Johor,1.50409,103.73447,80008192,http://otp.transitos.io/otpws/api/cities/2/index/stops/1:80008192,0,
80012268,12268,Opp Kolej Vokasional ERT Azizah,BA:Opp Kolej Vokasional ERT Azizah,1.50235,103.73544,80012268,http://otp.transitos.io/otpws/api/cities/2/index/stops/1:80012268,0,
80003118,03118,Opp Apartment Larkin Indah ,Jalan Datin Halimah- Johor Kampung Aman- Malaysia Johor- Malaysia,1.49802,103.73717,80003118,http://otp.transitos.io/otpws/api/cities/2/index/stops/1:80003118,0,
80012267,12267,Opp Jejantas Datin Halimah,BA:Opp Jejantas Datin Halimah,1.49608,103.73834,80012267,http://otp.transitos.io/otpws/api/cities/2/index/stops/1:80012267,0,
80008602,08602,DEWAN JKR JOHOR BAHRU,BA:DEWAN JKR JOHOR BAHRU,1.491747,103.740822,80008602,http://otp.transitos.io/otpws/api/cities/2/index/stops/1:80008602,0,
80012164,12164,Hospital Pakar Puteri,BA:Hospital Pakar Puteri,1.49009,103.74182,80012164,http://otp.transitos.io/otpws/api/cities/2/index/stops/1:80012164,0,
80012163,12163,Perkeso Johor Bahru,BA:Perkeso Johor Bahru,1.48747,103.74528,80012163,http://otp.transitos.io/otpws/api/cities/2/index/stops/1:80012163,0,
80012160,12160,Menara Kastam Johor Bahru,BA:Menara Kastam Johor Bahru,1.48678,103.74641,80012160,http://otp.transitos.io/otpws/api/cities/2/index/stops/1:80012160,0,
80008564,08564,Bomba Jalan Tun Abdul Razak,BA:Bomba Jalan Tun Abdul Razak,1.48514,103.75016,80008564,http://otp.transitos.io/otpws/api/cities/2/index/stops/1:80008564,0,
80004256,04256,Opp Jalan Tun Abdul Razak,Jalan Tun Abdul Razak- Johor Kampung Ngee Heng- Malaysia Johor- Malaysia,1.48034,103.75299,80004256,http://otp.transitos.io/otpws/api/cities/2/index/stops/1:80004256,0,
80003049,03049,OPP Plaza Pelangi,Jalan Rusa- Malaysia Kampung Wadi Hana- Malaysia Johor- Malaysia,1.4805,103.76435,80003049,http://otp.transitos.io/otpws/api/cities/2/index/stops/1:80003049,0,
80003051,03051,Crystal Crown,Jalan Harimau Tarom- Malaysia Kampung Wadi Hana- Malaysia Johor- Malaysia,1.48652,103.76603,80003051,http://otp.transitos.io/otpws/api/cities/2/index/stops/1:80003051,0,
80003054,03054,Caltex Taman Melodies,Tebrau Highway- Johor Kampung Setanggi- Malaysia Johor- Malaysia,1.49052,103.76696,80003054,http://otp.transitos.io/otpws/api/cities/2/index/stops/1:80003054,0,
80003056,03056,OPP Taman Sentosa,Tebrau Highway- Johor Kampung Setanggi- Malaysia Johor- Malaysia,1.49345,103.76645,80003056,http://otp.transitos.io/otpws/api/cities/2/index/stops/1:80003056,0,
80003059,03059,OPP Hospital Columbia ,Tebrau Highway- Johor Kampung Setanggi- Malaysia Johor- Malaysia,1.50051,103.76503,80003059,http://otp.transitos.io/otpws/api/cities/2/index/stops/1:80003059,0,
80003061,03061,OPP Mutiara Motors,Tebrau Highway- Johor Kampung Dato Sulaiman Menteri- Malaysia Johor- Malaysia,1.50383,103.76416,80003061,http://otp.transitos.io/otpws/api/cities/2/index/stops/1:80003061,0,
80003064,03064,Restoran Aliff,Tebrau Highway- Johor Kampung Setanggi- Malaysia Johor- Malaysia,1.50571,103.76267,80003064,http://otp.transitos.io/otpws/api/cities/2/index/stops/1:80003064,0,
80003067,03067,KG Melayu Majidee,Tebrau Highway- Johor Kampung Setanggi- Malaysia Johor- Malaysia,1.50975,103.76089,80003067,http://otp.transitos.io/otpws/api/cities/2/index/stops/1:80003067,0,
80003069,03069,Majidee,Tebrau Highway- Johor Kampung Setanggi- Malaysia Johor- Malaysia,1.51431,103.75807,80003069,http://otp.transitos.io/otpws/api/cities/2/index/stops/1:80003069,0,
80003085,03085,Restoran Pokok Ceri,Jalan Kangkar Tebrau- Johor Taman Istimewa- Malaysia Johor- Malaysia,1.53266,103.76376,80003085,http://otp.transitos.io/otpws/api/cities/2/index/stops/1:80003085,0,
80008836,08836,Opp Universal Cable,BA:Opp Universal Cable,1.53553,103.75949,80008836,http://otp.transitos.io/otpws/api/cities/2/index/stops/1:80008836,0,
80011289,11289,Masjid Kampung Kangkar Tebrau,BA:Masjid Kampung Kangkar Tebrau,1.53383,103.75577,80011289,http://otp.transitos.io/otpws/api/cities/2/index/stops/1:80011289,0,
80003005,03005,Bus Stop SK Kangkar Tebrau,Jalan Kangkar Tebrau- Johor Kampung Ulu Pandan- Malaysia Johor- Malaysia,1.53313,103.75485,80003005,http://otp.transitos.io/otpws/api/cities/2/index/stops/1:80003005,0,
80003006,03006,U turn Kangkar tebrau,Jalan Firma 2- Johor Taman Bukit Mutiara- Malaysia Johor- Malaysia,1.53137,103.7523,80003006,http://otp.transitos.io/otpws/api/cities/2/index/stops/1:80003006,0,
80013286,13286,JCY Jalan Firma 3,BA:JCY Jalan Firma 3,1.53296,103.75137,80013286,http://otp.transitos.io/otpws/api/cities/2/index/stops/1:80013286,0,
80013285,13285,Hostel Jalan Firma 3,BA:Hostel Jalan Firma 3,1.53535,103.7529,80013285,http://otp.transitos.io/otpws/api/cities/2/index/stops/1:80013285,0,
80013284,13284,Kilang Bika,BA:Kilang Bika,1.53622,103.75155,80013284,http://otp.transitos.io/otpws/api/cities/2/index/stops/1:80013284,0,
80013283,13283,Simpang Jalan Firma 3/1,BA:Simpang Jalan Firma 3/1,1.53424,103.74937,80013283,http://otp.transitos.io/otpws/api/cities/2/index/stops/1:80013283,0,
80008616,08616,MASJID KAMPUNG KANGKAR TEBRAU/SK KANGKAR,BA:MASJID KAMPUNG KANGKAR TEBRAU/SK KANGKAR,1.53372,103.75552,80008616,http://otp.transitos.io/otpws/api/cities/2/index/stops/1:80008616,0,
80003007,03007,Bus Stop Universal Cable,Jalan Daya- Malaysia Taman Delima- Malaysia Johor- Malaysia,1.53558,103.75965,80003007,http://otp.transitos.io/otpws/api/cities/2/index/stops/1:80003007,0,
80011290,11290,Opp Taman Delima,BA:Opp Taman Delima,1.53648,103.76272,80011290,http://otp.transitos.io/otpws/api/cities/2/index/stops/1:80011290,0,
80008617,08617,Flat Jalan Bertam 1,BA:Flat Jalan Bertam 1,1.53816,103.763,80008617,http://otp.transitos.io/otpws/api/cities/2/index/stops/1:80008617,0,
80002997,02997,Bus Stop Opp Shell Jalan Daya,Jalan Daya- Johor Taman Delima- Malaysia Johor- Malaysia,1.54654,103.76079,80002997,http://otp.transitos.io/otpws/api/cities/2/index/stops/1:80002997,0,
80011291,11291,Taman Daya,BA:Taman Daya,1.54698,103.75797,80011291,http://otp.transitos.io/otpws/api/cities/2/index/stops/1:80011291,0,
80002996,02996,Flat Jalan Nipah 11,Jalan Daya 2- Johor Taman Delima Indah- Malaysia Johor- Malaysia,1.54623,103.75707,80002996,http://otp.transitos.io/otpws/api/cities/2/index/stops/1:80002996,0,
80011292,11292,Jalan Rumbia 39 1,BA:Jalan Rumbia 39 1,1.54638,103.75572,80011292,http://otp.transitos.io/otpws/api/cities/2/index/stops/1:80011292,0,
80002995,02995,Jalan Rumbia 39 2,Jalan Rumbia 39- Johor Taman Delima Indah- Malaysia Johor- Malaysia,1.54858,103.75494,80002995,http://otp.transitos.io/otpws/api/cities/2/index/stops/1:80002995,0,
80002986,02986,SMK Taman Daya,Jalan Rumbia 39- Johor Taman Daya- Malaysia Johor- Malaysia,1.55249962420733,103.75425904,80002986,http://otp.transitos.io/otpws/api/cities/2/index/stops/1:80002986,0,
80010038,10038,Sekolah Agama Taman Daya,BA:Sekolah Agama Taman Daya,1.55426886334,103.754164686,80010038,http://otp.transitos.io/otpws/api/cities/2/index/stops/1:80010038,0,
80011334,11334,99 SPEEDMART JALAN NIBONG,BA:99 SPEEDMART JALAN NIBONG,1.55492,103.75588,80011334,http://otp.transitos.io/otpws/api/cities/2/index/stops/1:80011334,0,
80002999,02999,Bus Stop TM Auto Tyre,Jalan Daya- Johor Taman Daya- Malaysia Johor- Malaysia,1.55524,103.75822,80002999,http://otp.transitos.io/otpws/api/cities/2/index/stops/1:80002999,0,
80011293,11293,Opp Tadika Mutiara Taman Daya,BA:Opp Tadika Mutiara Taman Daya,1.55827,103.75814,80011293,http://otp.transitos.io/otpws/api/cities/2/index/stops/1:80011293,0,
80011296,11296,Opp Hankook Tyre,BA:Opp Hankook Tyre,1.55907,103.75816,80011296,http://otp.transitos.io/otpws/api/cities/2/index/stops/1:80011296,0,
80008620,08620,Opp Petron Jalan Daya,BA:Opp Petron Jalan Daya,1.56122,103.7583,80008620,http://otp.transitos.io/otpws/api/cities/2/index/stops/1:80008620,0,
80010079,10079,TD Point,BA:TD Point,1.56660507485,103.75894841,80010079,http://otp.transitos.io/otpws/api/cities/2/index/stops/1:80010079,0,
80011295,11295,Taman Setia Indah,BA:Taman Setia Indah,1.56891,103.75934,80011295,http://otp.transitos.io/otpws/api/cities/2/index/stops/1:80011295,0,
80008535,08535,Jalan Setia 1 Opp Setia Park,BA:Jalan Setia 1 Opp Setia Park,1.56961,103.75623,80008535,http://otp.transitos.io/otpws/api/cities/2/index/stops/1:80008535,0,
80010072,10072,PPR Setia Indah,BA:PPR Setia Indah,1.57011,103.75416,80010072,http://otp.transitos.io/otpws/api/cities/2/index/stops/1:80010072,0,
80010015,10015,Tadika Setia indah,BA:Tadika Setia indah,1.57255,103.75127,80010015,http://otp.transitos.io/otpws/api/cities/2/index/stops/1:80010015,0,
80013288,13288,Simpang Jalan Setia 4/12,BA:Simpang Jalan Setia 4/12,1.57444,103.74918,80013288,http://otp.transitos.io/otpws/api/cities/2/index/stops/1:80013288,0,
80013287,13287,Taman Seri Austin,BA:Taman Seri Austin,1.5769,103.74831,80013287,http://otp.transitos.io/otpws/api/cities/2/index/stops/1:80013287,0,
80013289,13289,Macdonalds Seri Austin,BA:Macdonalds Seri Austin,1.57833,103.75057,80013289,http://otp.transitos.io/otpws/api/cities/2/index/stops/1:80013289,0,
80013291,13291,Opp Jalan Setia 3/12,BA:Opp Jalan Setia 3/12,1.57647,103.75917,80013291,http://otp.transitos.io/otpws/api/cities/2/index/stops/1:80013291,0,
80002961,02961,Hentian Setia Indah,Jalan Daya  Jalan Setia 2 Johor- Malaysia,1.57332,103.75941,80002961,http://otp.transitos.io/otpws/api/cities/2/index/stops/1:80002961,0,
80011297,11297,Opp Taman Setia Indah,BA:Opp Taman Setia Indah,1.5688,103.7594,80011297,http://otp.transitos.io/otpws/api/cities/2/index/stops/1:80011297,0,
80010078,10078,Bus Stop Opp TD Point,BA:Bus Stop Opp TD Point,1.56645,103.75927,80010078,http://otp.transitos.io/otpws/api/cities/2/index/stops/1:80010078,0,
80002984,02984,Bus Stop Petron Jalan Daya,Jalan Daya- Johor Taman Daya- Malaysia Johor- Malaysia,1.56133,103.75843,80002984,http://otp.transitos.io/otpws/api/cities/2/index/stops/1:80002984,0,
80003000,03000,Hankook Tyre,Jalan Daya- Johor Taman Daya- Malaysia Johor- Malaysia,1.55911,103.75829,80003000,http://otp.transitos.io/otpws/api/cities/2/index/stops/1:80003000,0,
80011294,11294,Tadika Mutiara Taman Daya,BA:Tadika Mutiara Taman Daya,1.55832,103.75825,80011294,http://otp.transitos.io/otpws/api/cities/2/index/stops/1:80011294,0,
80011274,11274,Opp TM Auto Tyre,BA:Opp TM Auto Tyre,1.55529,103.75833,80011274,http://otp.transitos.io/otpws/api/cities/2/index/stops/1:80011274,0,
80003001,03001,Opp Gerai Muafakat Johor,Jalan Daya- Johor Taman Daya- Malaysia Johor- Malaysia,1.55014,103.75864,80003001,http://otp.transitos.io/otpws/api/cities/2/index/stops/1:80003001,0,
80003003,03003,Bus Stop TNB Taman Daya,Jalan Daya- Malaysia Taman Delima- Malaysia Johor- Malaysia,1.53845,103.76317,80003003,http://otp.transitos.io/otpws/api/cities/2/index/stops/1:80003003,0,
80003004,03004,Taman Delima,Jalan Daya- Malaysia Taman Delima- Malaysia Johor- Malaysia,1.53661,103.76285,80003004,http://otp.transitos.io/otpws/api/cities/2/index/stops/1:80003004,0,
80003084,03084,Surau Hajjah Fatimah,Jalan Kangkar Tebrau- Johor Taman Istimewa- Malaysia Johor- Malaysia,1.53099,103.76613,80003084,http://otp.transitos.io/otpws/api/cities/2/index/stops/1:80003084,0,
80003082,03082,Poliklinik Penawar Taman Istimewa,Jalan Kangkar Tebrau- Johor Taman Istimewa- Malaysia Johor- Malaysia,1.52963,103.76809,80003082,http://otp.transitos.io/otpws/api/cities/2/index/stops/1:80003082,0,
80003021,03021,OPP Majidee,Tebrau Highway- Johor Kampung Setanggi- Malaysia Johor- Malaysia,1.51474,103.75813,80003021,http://otp.transitos.io/otpws/api/cities/2/index/stops/1:80003021,0,
80003022,03022,OPP KG Melayu Majidee,Tebrau Highway- Johor Kampung Setanggi- Malaysia Johor- Malaysia,1.50984,103.7611,80003022,http://otp.transitos.io/otpws/api/cities/2/index/stops/1:80003022,0,
80003024,03024,OPP Restoran Aliff,Tebrau Highway- Johor Kampung Setanggi- Malaysia Johor- Malaysia,1.50609,103.76255,80003024,http://otp.transitos.io/otpws/api/cities/2/index/stops/1:80003024,0,
80003027,03027,Mutiara Motors,Tebrau Highway- Johor Kampung Setanggi- Malaysia Johor- Malaysia,1.50372,103.76451,80003027,http://otp.transitos.io/otpws/api/cities/2/index/stops/1:80003027,0,
80003030,03030,Hospital Columbia ,Tebrau Highway- Johor Kampung Setanggi- Malaysia Johor- Malaysia,1.50113,103.76521,80003030,http://otp.transitos.io/otpws/api/cities/2/index/stops/1:80003030,0,
80003032,03032,Taman Sentosa,Jalan Sutera 1- Malaysia Jalan Kebun Teh Johor- Malaysia,1.49432,103.76647,80003032,http://otp.transitos.io/otpws/api/cities/2/index/stops/1:80003032,0,
80003035,03035,OPP Caltex Taman Melodies,Jalan Sulam- Johor Taman Sentosa- Malaysia Johor- Malaysia,1.49166,103.76699,80003035,http://otp.transitos.io/otpws/api/cities/2/index/stops/1:80003035,0,
80003040,03040,OPP Crystal Crown,Tebrau Highway- Johor Kampung Setanggi- Malaysia Johor- Malaysia,1.48677,103.76628,80003040,http://otp.transitos.io/otpws/api/cities/2/index/stops/1:80003040,0,
80004183,04183,Plaza Pelangi,Tebrau Highway- Johor Century Garden- Malaysia Johor- Malaysia,1.48106,103.76468,80004183,http://otp.transitos.io/otpws/api/cities/2/index/stops/1:80004183,0,
80003042,03042,IPK Johor,Jalan Dato Abdullah Tahir- Johor Century Garden- Malaysia Johor- Malaysia,1.47738,103.7637,80003042,http://otp.transitos.io/otpws/api/cities/2/index/stops/1:80003042,0,
80013290,13290,Opp Wisma Peladang,BA:Opp Wisma Peladang,1.45652,103.76484,80013290,http://otp.transitos.io/otpws/api/cities/2/index/stops/1:80013290,0,
80013292,13292,Opp Danga City Mall,BA:Opp Danga City Mall,1.47579,103.75417,80013292,http://otp.transitos.io/otpws/api/cities/2/index/stops/1:80013292,0,
80013293,13293,Bank Muamalat Kebun Teh,BA:Bank Muamalat Kebun Teh,1.4847,103.75279,80013293,http://otp.transitos.io/otpws/api/cities/2/index/stops/1:80013293,0,
80007615,07615,Impian Business Park,Jalan Serantau- Johor Taman Dato Onn- Malaysia Johor- Malaysia,1.48729,103.75137,80007615,http://otp.transitos.io/otpws/api/cities/2/index/stops/1:80007615,0,
80011773,11773,Kacang Pool Hj,BA:Kacang Pool Hj,1.49054,103.75143,80011773,http://otp.transitos.io/otpws/api/cities/2/index/stops/1:80011773,0,
80007617,07617,SJK (C) Foon Yew 3,Sekolah Jenis Kebangsaan (Cina Foon Yew 3- Johor Kampung Kebun Teh- Malaysia Johor- Malaysia,1.49207,103.75142,80007617,http://otp.transitos.io/otpws/api/cities/2/index/stops/1:80007617,0,
80011774,11774,Taman Dato Onn,BA:Taman Dato Onn,1.49341,103.75142,80011774,http://otp.transitos.io/otpws/api/cities/2/index/stops/1:80011774,0,
80007619,07619,Opp Stadium Larkin,Jalan Dato Jaafar- Johor Kampung Kebun Teh- Malaysia Johor- Malaysia,1.49565,103.75094,80007619,http://otp.transitos.io/otpws/api/cities/2/index/stops/1:80007619,0,
80011775,11775,Sekolah Agama Dato Onn,BA:Sekolah Agama Dato Onn,1.49795,103.74806,80011775,http://otp.transitos.io/otpws/api/cities/2/index/stops/1:80011775,0,
80011776,11776,Ranhill SAJ Sdn Bhd,BA:Ranhill SAJ Sdn Bhd,1.49713,103.74549,80011776,http://otp.transitos.io/otpws/api/cities/2/index/stops/1:80011776,0,
80007620,07620,Stadium Larkin,Jalan Dato Jaafar- Johor Kampung Kebun Teh- Malaysia Johor- Malaysia,1.49654,103.75074,80007620,http://otp.transitos.io/otpws/api/cities/2/index/stops/1:80007620,0,
80002924,02924,AEON Tebrau / Opp IKEA,Tebrau Highway- Johor Taman Desa Tebrau- Malaysia Johor- Malaysia,1.5517,103.79659,80002924,http://otp.transitos.io/otpws/api/cities/2/index/stops/1:80002924,0,
80013294,13294,Toppen Jalan Tebrau,BA:Toppen Jalan Tebrau,1.55165,103.79776,80013294,http://otp.transitos.io/otpws/api/cities/2/index/stops/1:80013294,0,
80008460,08460,Opp AEON Tebrau/ IKEA,Persiaran Bandar Desa Tebrau Persiaran Bandar Desa Tebrau Johor,1.55165,103.79695,80008460,http://otp.transitos.io/otpws/api/cities/2/index/stops/1:80008460,0,
80008573,08573,Opp Desa Perwira,BA:Opp Desa Perwira,1.53525,103.78947,80008573,http://otp.transitos.io/otpws/api/cities/2/index/stops/1:80008573,0,
80007709,07709,Opp Taman Molek,Jalan Ros Merah 2/6- Johor Kawasan Industri Pandan- Malaysia Johor- Malaysia,1.53273,103.7921,80007709,http://otp.transitos.io/otpws/api/cities/2/index/stops/1:80007709,0,
80007707,07707,Balai Polis Johor Jaya,Jalan Ros Merah 4/13- Johor Kawasan Industri Pandan- Malaysia Johor- Malaysia,1.5298,103.79458,80007707,http://otp.transitos.io/otpws/api/cities/2/index/stops/1:80007707,0,
80008609,08609,Opp Tangki Air Tmn Molek,BA:Opp Tangki Air Tmn Molek,1.52844,103.79586,80008609,http://otp.transitos.io/otpws/api/cities/2/index/stops/1:80008609,0,
80011497,11497,TAMAN ROSMERAH,BA:TAMAN ROSMERAH,1.5270125301749276,103.79859711640934,80011497,http://otp.transitos.io/otpws/api/cities/2/index/stops/1:80011497,0,
80007699,07699,Opp Restoran Pekin Johor Jaya,Jalan Rosemerah 8/1- Johor Taman Perindustrian Plentong- Malaysia Johor- Malaysia,1.52427,103.80767,80007699,http://otp.transitos.io/otpws/api/cities/2/index/stops/1:80007699,0,
80007696,07696,Prima Regency 1,Jalan Masai Lama- Johor Taman Perindustrian Plentong- Malaysia Johor- Malaysia,1.52357,103.81146,80007696,http://otp.transitos.io/otpws/api/cities/2/index/stops/1:80007696,0,
80008436,08436,Opp Prima Regency 2,Jalan Masai Lama Jalan Masai Lama Johor,1.52327,103.81269,80008436,http://otp.transitos.io/otpws/api/cities/2/index/stops/1:80008436,0,
80003078,03078,Kia Motors Plentong,Jalan Masai Lama- Johor Taman Perindustrian Plentong- Malaysia Johor- Malaysia,1.52596,103.817,80003078,http://otp.transitos.io/otpws/api/cities/2/index/stops/1:80003078,0,
80011159,11159,Taman Bunga Ros,BA:Taman Bunga Ros,1.52119,103.82066,80011159,http://otp.transitos.io/otpws/api/cities/2/index/stops/1:80011159,0,
80003031,03031,Taman Ria Plentong,Jalan Masai Lama- Johor Taman Bukit Rinting- Malaysia Johor- Malaysia,1.52035,103.82453,80003031,http://otp.transitos.io/otpws/api/cities/2/index/stops/1:80003031,0,
80003029,03029,Sri Plentong,Jalan Masai Lama- Johor Taman Bukit Rinting- Malaysia Johor- Malaysia,1.51908,103.82585,80003029,http://otp.transitos.io/otpws/api/cities/2/index/stops/1:80003029,0,
80003028,03028,Jalan Masai Lama 2,Jalan Masai Lama- Johor Taman Bukit Rinting- Malaysia Johor- Malaysia,1.51079,103.83374,80003028,http://otp.transitos.io/otpws/api/cities/2/index/stops/1:80003028,0,
80011521,11521,Opp Petron Pasir Gudang East,BA:Opp Petron Pasir Gudang East,1.50328747466317,103.853511051888,80011521,http://otp.transitos.io/otpws/api/cities/2/index/stops/1:80011521,0,
80003023,03023,JALAN BAYU,Jalan Masai Lama- Johor Taman Bukit Rinting- Malaysia Johor- Malaysia,1.50138,103.85679,80003023,http://otp.transitos.io/otpws/api/cities/2/index/stops/1:80003023,0,
80003018,03018,Jalan Bayu 11 (Caltex ),Jalan Masai Lama- Johor Taman Bukit Rinting- Malaysia Johor- Malaysia,1.4998,103.86314,80003018,http://otp.transitos.io/otpws/api/cities/2/index/stops/1:80003018,0,
80002885,02885,Todays Market (Jalan Masai Lama),Jalan Masai Lama- Johor Taman Bukit Rinting- Malaysia Johor- Malaysia,1.49345,103.87231,80002885,http://otp.transitos.io/otpws/api/cities/2/index/stops/1:80002885,0,
80011152,11152,Opp KipMall Masai,BA:Opp KipMall Masai,1.48148,103.89174,80011152,http://otp.transitos.io/otpws/api/cities/2/index/stops/1:80011152,0,
80011500,11500,OPP KPJ Pasir Gudang,BA:OPP KPJ Pasir Gudang,1.47808,103.89549,80011500,http://otp.transitos.io/otpws/api/cities/2/index/stops/1:80011500,0,
80011518,11518,Opp Sekolah Islam Ah Tahfiz Taman Mawar,BA:Opp Sekolah Islam Ah Tahfiz Taman Mawar,1.46823441552008,103.898782424642,80011518,http://otp.transitos.io/otpws/api/cities/2/index/stops/1:80011518,0,
80008418,08418,Terminal Bas Pasir Gudang,Jalan Mawar Biru Kompleks Pusat Johor,1.46583,103.90133,80008418,http://otp.transitos.io/otpws/api/cities/2/index/stops/1:80008418,0,
80004387,04387,Opp SMK Pasir Gudang,Jalan Pusat Bandar- Johor Taman Masai- Malaysia Johor- Malaysia,1.47041,103.90556,80004387,http://otp.transitos.io/otpws/api/cities/2/index/stops/1:80004387,0,
80011501,11501,KPJ Pasir Gudang,BA:KPJ Pasir Gudang,1.478150071894286,103.89524283712439,80011501,http://otp.transitos.io/otpws/api/cities/2/index/stops/1:80011501,0,
80011514,11514,KipMall Masai,BA:KipMall Masai,1.48153,103.89167,80011514,http://otp.transitos.io/otpws/api/cities/2/index/stops/1:80011514,0,
80008556,08556,Opp Terminal Bas Masai,BA:Opp Terminal Bas Masai,1.48639,103.88546,80008556,http://otp.transitos.io/otpws/api/cities/2/index/stops/1:80008556,0,
80002874,02874,Opp SMK Dato Penggawa Timur,Jalan Meranti- Johor Taman Rinting- Malaysia Johor- Malaysia,1.49245,103.87819,80002874,http://otp.transitos.io/otpws/api/cities/2/index/stops/1:80002874,0,
80008551,08551,Opp Maybank Bandar Seri Alam,BA:Opp Maybank Bandar Seri Alam,1.493078,103.874256,80008551,http://otp.transitos.io/otpws/api/cities/2/index/stops/1:80008551,0,
80008572,08572,Opp Todays Market (Jalan Masai Lama),BA:Opp Todays Market (Jalan Masai Lama),1.49342,103.87228,80008572,http://otp.transitos.io/otpws/api/cities/2/index/stops/1:80008572,0,
80011519,11519,Opp Jalan Bayu 11 (Caltex),BA:Opp Jalan Bayu 11 (Caltex),1.49964132979013,103.863302917783,80011519,http://otp.transitos.io/otpws/api/cities/2/index/stops/1:80011519,0,
80003026,03026,Petron Pasir Gudang East,Jalan Masai Lama- Johor Taman Bukit Rinting- Malaysia Johor- Malaysia,1.50338,103.85309,80003026,http://otp.transitos.io/otpws/api/cities/2/index/stops/1:80003026,0,
80011151,11151,Jalan Masai Lama 1,BA:Jalan Masai Lama 1,1.51627,103.82765,80011151,http://otp.transitos.io/otpws/api/cities/2/index/stops/1:80011151,0,
80011517,11517,Opp Sri Plentong,BA:Opp Sri Plentong,1.51938133843487,103.825353217762,80011517,http://otp.transitos.io/otpws/api/cities/2/index/stops/1:80011517,0,
80011520,11520,Opp Taman Ria Plentong,BA:Opp Taman Ria Plentong,1.52042,103.82433,80011520,http://otp.transitos.io/otpws/api/cities/2/index/stops/1:80011520,0,
80003076,03076,Opp Taman Bunga Ros,Jalan Masai Lama- Johor Taman Bukit Rinting- Malaysia Johor- Malaysia,1.52122,103.82044,80003076,http://otp.transitos.io/otpws/api/cities/2/index/stops/1:80003076,0,
80011158,11158,OPP Kia Motors Plentong,BA:OPP Kia Motors Plentong,1.52614,103.81684,80011158,http://otp.transitos.io/otpws/api/cities/2/index/stops/1:80011158,0,
80008435,08435,Prima Regency 2,Jalan Masai Lama Jalan Masai Lama Johor,1.52325,103.81282,80008435,http://otp.transitos.io/otpws/api/cities/2/index/stops/1:80008435,0,
80007697,07697,OPP Prima Regency 1,Jalan Masai Lama- Johor Taman Perindustrian Plentong- Malaysia Johor- Malaysia,1.52343,103.81139,80007697,http://otp.transitos.io/otpws/api/cities/2/index/stops/1:80007697,0,
80007700,07700,Restoran Pekin Johor Jaya,Jalan Rosemerah 8/1- Johor Taman Perindustrian Plentong- Malaysia Johor- Malaysia,1.52418,103.80761,80007700,http://otp.transitos.io/otpws/api/cities/2/index/stops/1:80007700,0,
80008612,08612,Warung Abadi,BA:Warung Abadi,1.52543,103.80451,80008612,http://otp.transitos.io/otpws/api/cities/2/index/stops/1:80008612,0,
80008610,08610,ROSMERAH 9 ,BA:ROSMERAH 9 ,1.526422,103.800695,80008610,http://otp.transitos.io/otpws/api/cities/2/index/stops/1:80008610,0,
80011124,11124,Opp Taman Rosmerah,BA:Opp Taman Rosmerah,1.526865,103.798388,80011124,http://otp.transitos.io/otpws/api/cities/2/index/stops/1:80011124,0,
80008608,08608,Tangki Air Taman Molek,BA:Tangki Air Taman Molek,1.52799,103.79592,80008608,http://otp.transitos.io/otpws/api/cities/2/index/stops/1:80008608,0,
80007705,07705,Opp Balai Polis Johor Jaya,Jalan Ros Merah 4/13- Johor Kawasan Industri Pandan- Malaysia Johor- Malaysia,1.52979,103.79442,80007705,http://otp.transitos.io/otpws/api/cities/2/index/stops/1:80007705,0,
80007708,07708,Taman Molek,Jalan Masai Baru- Johor Kawasan Industri Pandan- Malaysia Johor- Malaysia,1.53196,103.79258,80007708,http://otp.transitos.io/otpws/api/cities/2/index/stops/1:80007708,0,
80007713,07713,Desa Perwira,Jalan Masai Baru- Johor Kawasan Industri Pandan- Malaysia Johor- Malaysia,1.53513,103.78953,80007713,http://otp.transitos.io/otpws/api/cities/2/index/stops/1:80007713,0,
80010439,10439,OPP R&F Mall,BA:OPP R&F Mall,1.459885,103.768063,80010439,http://otp.transitos.io/otpws/api/cities/2/index/stops/1:80010439,0,
80011287,11287,MENARA MSC CYBERPORT,BA:MENARA MSC CYBERPORT,1.46215,103.77208,80011287,http://otp.transitos.io/otpws/api/cities/2/index/stops/1:80011287,0,
80003043,03043,Foon Yew High School,Jalan Ibrahim Sultan- Johor Taman Pelangi- Malaysia Johor- Malaysia,1.46739,103.77919,80003043,http://otp.transitos.io/otpws/api/cities/2/index/stops/1:80003043,0,
80003038,03038,The Zone,Jalan Ibrahim Sultan- Johor Taman Pelangi- Malaysia Johor- Malaysia,1.46913,103.78136,80003038,http://otp.transitos.io/otpws/api/cities/2/index/stops/1:80003038,0,
80003047,03047,Flat Sri Stulang,Jalan Stulang Laut- Johor Taman Pelangi- Malaysia Johor- Malaysia,1.47145,103.78108,80003047,http://otp.transitos.io/otpws/api/cities/2/index/stops/1:80003047,0,
80011778,11778,Medan Selera Stulang Walk,BA:Medan Selera Stulang Walk,1.4730171542615644,103.77987335015806,80011778,http://otp.transitos.io/otpws/api/cities/2/index/stops/1:80011778,0,
80003037,03037,Pasir Pelangi,Jalan Pasir Pelangi Jalan Sri Pelangi 1 Johor- Malaysia,1.47749,103.78088,80003037,http://otp.transitos.io/otpws/api/cities/2/index/stops/1:80003037,0,
80011779,11779,Masjid Pasir Pelangi,BA:Masjid Pasir Pelangi,1.4880272679427697,103.78610948134445,80011779,http://otp.transitos.io/otpws/api/cities/2/index/stops/1:80011779,0,
80003050,03050,Opp Shell Taman Iskandar,Jalan Pasir Pelangi Pasir Pelangi- Malaysia Johor- Malaysia,1.49061,103.78544,80003050,http://otp.transitos.io/otpws/api/cities/2/index/stops/1:80003050,0,
80011780,11780,Pangsapuri Pasir Pelangi,BA:Pangsapuri Pasir Pelangi,1.494062929899105,103.7838497992417,80011780,http://otp.transitos.io/otpws/api/cities/2/index/stops/1:80011780,0,
80008806,08806,SOGO Mid Valley,BA:SOGO Mid Valley,1.5018,103.77548,80008806,http://otp.transitos.io/otpws/api/cities/2/index/stops/1:80008806,0,
80011781,11781,MBSB Mid Valley,BA:MBSB Mid Valley,1.49772000391916,103.777344669779,80011781,http://otp.transitos.io/otpws/api/cities/2/index/stops/1:80011781,0,
80007751,07751,Bakar Batu,Bakar Batu Interchange- Johor Taman Sri Stulang- Malaysia Johor- Malaysia,1.49612,103.78418,80007751,http://otp.transitos.io/otpws/api/cities/2/index/stops/1:80007751,0,
80003057,03057,Petronas Bayu Puteri,Johor Bahru East Coast Highway- Johor Taman Sri Stulang- Malaysia Johor- Malaysia,1.49709,103.78918,80003057,http://otp.transitos.io/otpws/api/cities/2/index/stops/1:80003057,0,
80008565,08565,Shell Jambatan Permas,BA:Shell Jambatan Permas,1.492396,103.805058,80008565,http://otp.transitos.io/otpws/api/cities/2/index/stops/1:80008565,0,
80004221,04221,RENAISSANCE,2- Johor Taman Sri Stulang- Malaysia Johor- Malaysia,1.49401,103.81302,80004221,http://otp.transitos.io/otpws/api/cities/2/index/stops/1:80004221,0,
80011791,11791,AEON (Parking),BA:AEON (Parking),1.49472,103.81859,80011791,http://otp.transitos.io/otpws/api/cities/2/index/stops/1:80011791,0,
80003060,03060,AEON (Side) Permas Jaya,Jalan Permas 9/5- Johor Bandar Baru Kota Puteri- Malaysia Johor- Malaysia,1.49601,103.81972,80003060,http://otp.transitos.io/otpws/api/cities/2/index/stops/1:80003060,0,
80011784,11784,Jalan Permas 8/1,BA:Jalan Permas 8/1,1.4976411016065534,103.82173363612982,80011784,http://otp.transitos.io/otpws/api/cities/2/index/stops/1:80011784,0,
80008583,08583,Dewan Serbaguna Permas Jaya,BA:Dewan Serbaguna Permas Jaya,1.497679,103.824135,80008583,http://otp.transitos.io/otpws/api/cities/2/index/stops/1:80008583,0,
80010127,10127,Pangsapuri Permas Jaya Zon 1,BA:Pangsapuri Permas Jaya Zon 1,1.49921,103.82691,80010127,http://otp.transitos.io/otpws/api/cities/2/index/stops/1:80010127,0,
80010128,10128,Masjid Permas 8,BA:Masjid Permas 8,1.50005,103.8248,80010128,http://otp.transitos.io/otpws/api/cities/2/index/stops/1:80010128,0,
80003062,03062,Jalan Permas 7,Jalan Permas 7- Johor Bandar Baru Kota Puteri- Malaysia Johor- Malaysia,1.50008,103.82568,80003062,http://otp.transitos.io/otpws/api/cities/2/index/stops/1:80003062,0,
80003063,03063,Mon Glori,Jalan Permas 7- Johor Bandar Baru Permas Jaya- Malaysia Johor- Malaysia,1.50002,103.82199,80003063,http://otp.transitos.io/otpws/api/cities/2/index/stops/1:80003063,0,
80003065,03065,SK Permas Jaya 3,Jalan Permas 7- Johor Bandar Baru Permas Jaya- Malaysia Johor- Malaysia,1.50009,103.82034,80003065,http://otp.transitos.io/otpws/api/cities/2/index/stops/1:80003065,0,
80011790,11790,Jalan Permas Utara,BA:Jalan Permas Utara,1.504224578679908,103.81780302827026,80011790,http://otp.transitos.io/otpws/api/cities/2/index/stops/1:80011790,0,
80011789,11789,Jalan Permas 4/6,BA:Jalan Permas 4/6,1.5048017608247064,103.81974099739149,80011789,http://otp.transitos.io/otpws/api/cities/2/index/stops/1:80011789,0,
80011788,11788,Pasar Mini Jin Seng,BA:Pasar Mini Jin Seng,1.505826491720921,103.82084023674494,80011788,http://otp.transitos.io/otpws/api/cities/2/index/stops/1:80011788,0,
80011787,11787,Jalan Permas 3,BA:Jalan Permas 3,1.508526657665778,103.82071478919563,80011787,http://otp.transitos.io/otpws/api/cities/2/index/stops/1:80011787,0,
80003075,03075,Poliklinik Rozikin,Jalan Permas 1- Johor Taman Perindustrian Plentong- Malaysia Johor- Malaysia,1.51094,103.82061,80003075,http://otp.transitos.io/otpws/api/cities/2/index/stops/1:80003075,0,
80011785,11785,Jalan Permas 1/18,BA:Jalan Permas 1/18,1.51325381842701,103.820600548499,80011785,http://otp.transitos.io/otpws/api/cities/2/index/stops/1:80011785,0,
80003073,03073,SK Permas Jaya 1,Jalan Permas 1- Johor Taman Plentong Utama- Malaysia Johor- Malaysia,1.51485,103.82077,80003073,http://otp.transitos.io/otpws/api/cities/2/index/stops/1:80003073,0,
80011786,11786,Jalan Permas 1/6,BA:Jalan Permas 1/6,1.5170530435237872,103.82175917720528,80011786,http://otp.transitos.io/otpws/api/cities/2/index/stops/1:80011786,0,
80003071,03071,Jalan Permas 1/2,Jalan Permas 1- Johor Taman Perindustrian Plentong- Malaysia Johor- Malaysia,1.51785,103.82169,80003071,http://otp.transitos.io/otpws/api/cities/2/index/stops/1:80003071,0,
80003070,03070,Hub Permas Jaya,Jalan Permas 1/1- Johor Taman Plentong Utama- Malaysia Johor- Malaysia,1.51877,103.82025,80003070,http://otp.transitos.io/otpws/api/cities/2/index/stops/1:80003070,0,
80011783,11783,Aeon (Back),BA:Aeon (Back),1.49764,103.81871,80011783,http://otp.transitos.io/otpws/api/cities/2/index/stops/1:80011783,0,
80011782,11782,UNI Klinik,BA:UNI Klinik,1.49766,103.81722,80011782,http://otp.transitos.io/otpws/api/cities/2/index/stops/1:80011782,0,
80008557,08557,AEON (MAIN) Permas Jaya,BA:AEON (MAIN) Permas Jaya,1.4958,103.81655,80008557,http://otp.transitos.io/otpws/api/cities/2/index/stops/1:80008557,0,
80003058,03058,Opp RENAISSANCE,JB Easct Coast Hwy Taman Sri Stulang- Malaysia Johor- Malaysia,1.49391,103.81311,80003058,http://otp.transitos.io/otpws/api/cities/2/index/stops/1:80003058,0,
80003055,03055,Opp Petronas Bayu Puteri,Johor Bahru East Coast Highway- Johor Taman Sri Stulang- Malaysia Johor- Malaysia,1.49699,103.78998,80003055,http://otp.transitos.io/otpws/api/cities/2/index/stops/1:80003055,0,
80008571,08571,Kg Bakar Batu,BA:Kg Bakar Batu,1.49596,103.78445,80008571,http://otp.transitos.io/otpws/api/cities/2/index/stops/1:80008571,0,
80003048,03048,Shell Taman Iskandar,Jalan Pasir Pelangi- Johor Taman Sri Stulang- Malaysia Johor- Malaysia,1.49095,103.78567,80003048,http://otp.transitos.io/otpws/api/cities/2/index/stops/1:80003048,0,
80008558,08558,Istana Pasir Pelangi,BA:Istana Pasir Pelangi,1.47813,103.7813,80008558,http://otp.transitos.io/otpws/api/cities/2/index/stops/1:80008558,0,
80003044,03044,Opp Foon Yew High School,Jalan Ibrahim Sultan- Johor Taman Pelangi- Malaysia Johor- Malaysia,1.46723,103.7791,80003044,http://otp.transitos.io/otpws/api/cities/2/index/stops/1:80003044,0,
80011288,11288,Opp Menara MSC Cyberport,BA:Opp Menara MSC Cyberport,1.46209,103.77256,80011288,http://otp.transitos.io/otpws/api/cities/2/index/stops/1:80011288,0,
80010438,10438,R&F Mall,BA:R&F Mall,1.46001,103.76859,80010438,http://otp.transitos.io/otpws/api/cities/2/index/stops/1:80010438,0,
80011772,11772,Affin Bank,BA:Affin Bank,1.4861,103.75455,80011772,http://otp.transitos.io/otpws/api/cities/2/index/stops/1:80011772,0,
80011771,11771,Taman Perkuburan Jepun,BA:Taman Perkuburan Jepun,1.48932,103.75604,80011771,http://otp.transitos.io/otpws/api/cities/2/index/stops/1:80011771,0,
80011770,11770,Tanah Perkuburan Tamil,BA:Tanah Perkuburan Tamil,1.49128,103.75681,80011770,http://otp.transitos.io/otpws/api/cities/2/index/stops/1:80011770,0,
80011769,11769,Perbadanan ISlam,BA:Perbadanan ISlam,1.49503,103.75985,80011769,http://otp.transitos.io/otpws/api/cities/2/index/stops/1:80011769,0,
80011768,11768,SJK (C) Foon Yew 1,BA:SJK (C) Foon Yew 1,1.49643,103.76196,80011768,http://otp.transitos.io/otpws/api/cities/2/index/stops/1:80011768,0,
80013298,13298,Opp Wisma Daiman,BA:Opp Wisma Daiman,1.4952,103.76674,80013298,http://otp.transitos.io/otpws/api/cities/2/index/stops/1:80013298,0,
80013301,13301,CIMB Southkey,BA:CIMB Southkey,1.49598,103.77645,80013301,http://otp.transitos.io/otpws/api/cities/2/index/stops/1:80013301,0,
80008566,08566,Opp Shell Jambatan Permas,BA:Opp Shell Jambatan Permas,1.49247,103.80522,80008566,http://otp.transitos.io/otpws/api/cities/2/index/stops/1:80008566,0,
80011793,11793,Jalan Permas 9/17,BA:Jalan Permas 9/17,1.4944575171161179,103.82299059967562,80011793,http://otp.transitos.io/otpws/api/cities/2/index/stops/1:80011793,0,
80013312,13312,Cahaya Kota Puteri,BA:Cahaya Kota Puteri,1.4909,103.84168,80013312,http://otp.transitos.io/otpws/api/cities/2/index/stops/1:80013312,0,
80008937,08937,SDS Jalan Kota,BA:SDS Jalan Kota,1.49217,103.84251,80008937,http://otp.transitos.io/otpws/api/cities/2/index/stops/1:80008937,0,
80013314,13314,Rasa Al Aqsa Nasi Arab,BA:Rasa Al Aqsa Nasi Arab,1.49481,103.84435,80013314,http://otp.transitos.io/otpws/api/cities/2/index/stops/1:80013314,0,
80013316,13316,Taman Megah Ria,BA:Taman Megah Ria,1.50096,103.84949,80013316,http://otp.transitos.io/otpws/api/cities/2/index/stops/1:80013316,0,
80010125,10125,OYO Jalan Bayan,BA:OYO Jalan Bayan,1.49998,103.85096,80010125,http://otp.transitos.io/otpws/api/cities/2/index/stops/1:80010125,0,
80006562,06562,SK Sri Kota Puteri,Jalan Bayan- Johor Taman Bukit Rinting- Malaysia Johor- Malaysia,1.49879,103.85274,80006562,http://otp.transitos.io/otpws/api/cities/2/index/stops/1:80006562,0,
80013303,13303,Simpang Bayan 3/1,BA:Simpang Bayan 3/1,1.49812,103.85381,80013303,http://otp.transitos.io/otpws/api/cities/2/index/stops/1:80013303,0,
80002880,02880, Apartmen Ria 1,Jalan Rinting- Johor Taman Bukit Rinting- Malaysia Johor- Malaysia,1.49668,103.85477,80002880,http://otp.transitos.io/otpws/api/cities/2/index/stops/1:80002880,0,
80013304,13304,Jalan Cenderai 7,BA:Jalan Cenderai 7,1.49491,103.85224,80013304,http://otp.transitos.io/otpws/api/cities/2/index/stops/1:80013304,0,
80013305,13305,99 Speedmart Jalan Kempas,BA:99 Speedmart Jalan Kempas,1.49178,103.85013,80013305,http://otp.transitos.io/otpws/api/cities/2/index/stops/1:80013305,0,
80000219,00219,SJK (C) Chee Tong,Jalan Kempas- Johor Taman Megah Ria- Malaysia Johor- Malaysia,1.48977,103.8499,80000219,http://otp.transitos.io/otpws/api/cities/2/index/stops/1:80000219,0,
80011641,11641,PPR Megah Ria,BA:PPR Megah Ria,1.4871,103.85492,80011641,http://otp.transitos.io/otpws/api/cities/2/index/stops/1:80011641,0,
80002879,02879,Flat Ketapang,Jalan Rinting- Johor Taman Rinting- Malaysia Johor- Malaysia,1.48677,103.85794,80002879,http://otp.transitos.io/otpws/api/cities/2/index/stops/1:80002879,0,
80002878,02878,SK Taman Rinting 3,Jalan Rinting- Johor Taman Rinting- Malaysia Johor- Malaysia,1.48442,103.85929,80002878,http://otp.transitos.io/otpws/api/cities/2/index/stops/1:80002878,0,
80011640,11640,Jalan Balau 11,BA:Jalan Balau 11,1.4839,103.86503,80011640,http://otp.transitos.io/otpws/api/cities/2/index/stops/1:80011640,0,
80013306,13306,Flat Jalan Balau Blok E,BA:Flat Jalan Balau Blok E,1.4839,103.86611,80013306,http://otp.transitos.io/otpws/api/cities/2/index/stops/1:80013306,0,
80013307,13307,Taman Komuniti Balau,BA:Taman Komuniti Balau,1.48477,103.86707,80013307,http://otp.transitos.io/otpws/api/cities/2/index/stops/1:80013307,0,
80002876,02876,Kampung Sungai Rinting D,Pasir Gudang Highway- Johor Taman Rinting- Malaysia Johor- Malaysia,1.48874,103.87024,80002876,http://otp.transitos.io/otpws/api/cities/2/index/stops/1:80002876,0,
80013271,13271,Mydin Taman Rinting 2,BA:Mydin Taman Rinting 2,1.49136,103.8676,80013271,http://otp.transitos.io/otpws/api/cities/2/index/stops/1:80013271,0,
80013308,13308,Petronas Jalan Rinting,BA:Petronas Jalan Rinting,1.49244,103.86747,80013308,http://otp.transitos.io/otpws/api/cities/2/index/stops/1:80013308,0,
80007585,07585,LOTUS BANDAR SERI ALAM,Jalan Seri Alam- Johor Taman Rinting- Malaysia Johor- Malaysia,1.49615,103.87012,80007585,http://otp.transitos.io/otpws/api/cities/2/index/stops/1:80007585,0,
80013310,13310,Opp Beside Todays Market Jalan Suria,BA:Opp Beside Todays Market Jalan Suria,1.49374,103.8735,80013310,http://otp.transitos.io/otpws/api/cities/2/index/stops/1:80013310,0,
80013317,13317,Taman Bukit Dahlia 1,BA:Taman Bukit Dahlia 1,1.47939,103.89739,80013317,http://otp.transitos.io/otpws/api/cities/2/index/stops/1:80013317,0,
80013320,13320,Taman Bukit Dahlia 2,BA:Taman Bukit Dahlia 2,1.48165,103.89836,80013320,http://otp.transitos.io/otpws/api/cities/2/index/stops/1:80013320,0,
80013322,13322,Sekolah Agama Taman Bukit Dahlia,BA:Sekolah Agama Taman Bukit Dahlia,1.48399,103.90021,80013322,http://otp.transitos.io/otpws/api/cities/2/index/stops/1:80013322,0,
80011505,11505,Taman Bukit Dahlia 3,BA:Taman Bukit Dahlia 3,1.48373,103.90298,80011505,http://otp.transitos.io/otpws/api/cities/2/index/stops/1:80011505,0,
80011513,11513,Opp Taman Cendana Blok 10,BA:Opp Taman Cendana Blok 10,1.48836385309527,103.906682735588,80011513,http://otp.transitos.io/otpws/api/cities/2/index/stops/1:80011513,0,
80011506,11506,Taman Cendana Blok 34,BA:Taman Cendana Blok 34,1.4879311461244105,103.91186043209818,80011506,http://otp.transitos.io/otpws/api/cities/2/index/stops/1:80011506,0,
80004217,04217,Dewan Serbaguna Taman Cendana 2,jalan cendana masai johor,1.48796,103.91253,80004217,http://otp.transitos.io/otpws/api/cities/2/index/stops/1:80004217,0,
80004464,04464,Opp Taman Kota Masai,Jalan Kong Kong- Johor Taman Nusa Damai Johor- Malaysia,1.48995,103.91777,80004464,http://otp.transitos.io/otpws/api/cities/2/index/stops/1:80004464,0,
80011507,11507,McDonalds Jalan Kong Kong,BA:McDonalds Jalan Kong Kong,1.49247,103.91915,80011507,http://otp.transitos.io/otpws/api/cities/2/index/stops/1:80011507,0,
80008578,08578,Eco Tropics,BA:Eco Tropics,1.49322,103.92298,80008578,http://otp.transitos.io/otpws/api/cities/2/index/stops/1:80008578,0,
80011155,11155,Petronas Kota Masai Bacang,BA:Petronas Kota Masai Bacang,1.49067,103.92687,80011155,http://otp.transitos.io/otpws/api/cities/2/index/stops/1:80011155,0,
80013323,13323,Lotus Kota Masai,BA:Lotus Kota Masai,1.48444,103.9359,80013323,http://otp.transitos.io/otpws/api/cities/2/index/stops/1:80013323,0,
80011154,11154,Opp Petronas Kota Masai Bacang,BA:Opp Petronas Kota Masai Bacang,1.49049,103.92692,80011154,http://otp.transitos.io/otpws/api/cities/2/index/stops/1:80011154,0,
80008579,08579,Opp Eco Tropics,BA:Opp Eco Tropics,1.49334,103.92255,80008579,http://otp.transitos.io/otpws/api/cities/2/index/stops/1:80008579,0,
80004465,04465,Opp McDonalds Jalan Kong Kong,Jalan Kong Kong- Johor Taman Desa Rakyat- Malaysia Johor- Malaysia,1.49237,103.91932,80004465,http://otp.transitos.io/otpws/api/cities/2/index/stops/1:80004465,0,
80011508,11508,Taman Kota Masai,BA:Taman Kota Masai,1.48965228599332,103.917934460563,80011508,http://otp.transitos.io/otpws/api/cities/2/index/stops/1:80011508,0,
80004216,04216,Opp Dewan Serbaguna Taman Cendana 2,Jalan Cendana- Johor Taman Masai- Malaysia Johor- Malaysia,1.48771,103.91217,80004216,http://otp.transitos.io/otpws/api/cities/2/index/stops/1:80004216,0,
80004390,04390,Opp Taman Cendana Blok 34,Jalan Cendana- Johor Taman Masai- Malaysia Johor- Malaysia,1.4878,103.91074,80004390,http://otp.transitos.io/otpws/api/cities/2/index/stops/1:80004390,0,
80004389,04389,Taman Cendana Blok 10,Jalan Cendana- Johor Taman Masai- Malaysia Johor- Malaysia,1.48834,103.90683,80004389,http://otp.transitos.io/otpws/api/cities/2/index/stops/1:80004389,0,
80004388,04388,SK Taman Cendana,Jalan Cendana- Johor Taman Masai- Malaysia Johor- Malaysia,1.4866,103.90475,80004388,http://otp.transitos.io/otpws/api/cities/2/index/stops/1:80004388,0,
80013324,13324,Opp Taman Bukit Dahlia 3,BA:Opp Taman Bukit Dahlia 3,1.48358,103.90306,80013324,http://otp.transitos.io/otpws/api/cities/2/index/stops/1:80013324,0,
80013321,13321,Opp Sekolah Agama Taman Bukit Dahlia,BA:Opp Sekolah Agama Taman Bukit Dahlia,1.48386,103.90024,80013321,http://otp.transitos.io/otpws/api/cities/2/index/stops/1:80013321,0,
80013319,13319,Opp Taman Bukit Dahlia 2,BA:Opp Taman Bukit Dahlia 2,1.48193,103.89861,80013319,http://otp.transitos.io/otpws/api/cities/2/index/stops/1:80013319,0,
80013318,13318,Opp Taman Bukit Dahlia 1,BA:Opp Taman Bukit Dahlia 1,1.47922,103.89745,80013318,http://otp.transitos.io/otpws/api/cities/2/index/stops/1:80013318,0,
80013311,13311,Beside Todays Market Jalan Suria,BA:Beside Todays Market Jalan Suria,1.4939,103.87347,80013311,http://otp.transitos.io/otpws/api/cities/2/index/stops/1:80013311,0,
80011638,11638,Opp Regency Specialist Hospital,BA:Opp Regency Specialist Hospital,1.49688,103.87163,80011638,http://otp.transitos.io/otpws/api/cities/2/index/stops/1:80011638,0,
80011637,11637,Opp Lotus Bandar Sri Alam,BA:Opp Lotus Bandar Sri Alam,1.49647,103.87057,80011637,http://otp.transitos.io/otpws/api/cities/2/index/stops/1:80011637,0,
80013309,13309,Opp Petronas Jalan Rinting,BA:Opp Petronas Jalan Rinting,1.49227,103.86749,80013309,http://otp.transitos.io/otpws/api/cities/2/index/stops/1:80013309,0,
80013315,13315,Opp Rasa Al Aqsa Nasi Arab,BA:Opp Rasa Al Aqsa Nasi Arab,1.49473,103.84441,80013315,http://otp.transitos.io/otpws/api/cities/2/index/stops/1:80013315,0,
80008936,08936,Opp SDS Jalan Kota,BA:Opp SDS Jalan Kota,1.4918,103.84247,80008936,http://otp.transitos.io/otpws/api/cities/2/index/stops/1:80008936,0,
80013313,13313,Opp Cahaya Kota Puteri,BA:Opp Cahaya Kota Puteri,1.49075,103.84173,80013313,http://otp.transitos.io/otpws/api/cities/2/index/stops/1:80013313,0,
80011794,11794,Jalan Permas 15/1,BA:Jalan Permas 15/1,1.4942047671808225,103.82300167603405,80011794,http://otp.transitos.io/otpws/api/cities/2/index/stops/1:80011794,0,
80013302,13302,Opp AEON (Parking),BA:Opp AEON (Parking),1.49442,103.81867,80013302,http://otp.transitos.io/otpws/api/cities/2/index/stops/1:80013302,0,
80013300,13300,Opp CIMB Southkey,BA:Opp CIMB Southkey,1.49582,103.77659,80013300,http://otp.transitos.io/otpws/api/cities/2/index/stops/1:80013300,0,
80013299,13299,Wisma Daiman,BA:Wisma Daiman,1.49506,103.7668,80013299,http://otp.transitos.io/otpws/api/cities/2/index/stops/1:80013299,0,
80013297,13297,Opp Tanah Perkuburan Tamil,BA:Opp Tanah Perkuburan Tamil,1.49071,103.7568,80013297,http://otp.transitos.io/otpws/api/cities/2/index/stops/1:80013297,0,
80013296,13296,Opp Tanah Perkuburan Jepun,BA:Opp Tanah Perkuburan Jepun,1.48929,103.75615,80013296,http://otp.transitos.io/otpws/api/cities/2/index/stops/1:80013296,0,
80013295,13295,Opp Affin Bank,BA:Opp Affin Bank,1.48605,103.75463,80013295,http://otp.transitos.io/otpws/api/cities/2/index/stops/1:80013295,0,
80008055,08055,Lot 10,No results No results No results,1.45426,103.75828,80008055,http://otp.transitos.io/otpws/api/cities/2/index/stops/1:80008055,0,
80003184,03184,OPP Pusat Islam Negeri Johor,14B- Johor Kampung Jawa- Malaysia Johor- Malaysia,1.45671,103.74825,80003184,http://otp.transitos.io/otpws/api/cities/2/index/stops/1:80003184,0,
80003187,03187,OPP Dataran Bandaraya Johor Bahru / Sri ,Jalan Titiwangsa 12- Johor Kampung Mohd Amin- Malaysia Johor- Malaysia,1.45938,103.73828,80003187,http://otp.transitos.io/otpws/api/cities/2/index/stops/1:80003187,0,
80011299,11299,Beletime,BA:Beletime,1.4628,103.73158,80011299,http://otp.transitos.io/otpws/api/cities/2/index/stops/1:80011299,0,
80003188,03188,OPP M-Suites,Jalan Skudai- Johor Kampung Jawa- Malaysia Johor- Malaysia,1.46453,103.72975,80003188,http://otp.transitos.io/otpws/api/cities/2/index/stops/1:80003188,0,
80003189,03189,Danga Bay,Jalan Skudai- Johor Kampung Jawa- Malaysia Johor- Malaysia,1.47321,103.72495,80003189,http://otp.transitos.io/otpws/api/cities/2/index/stops/1:80003189,0,
80002933,02933,Tune Hotel,Iskandar Coastal Highway- Johor Kampung Skudai Kiri- Malaysia Johor- Malaysia,1.48411,103.71892,80002933,http://otp.transitos.io/otpws/api/cities/2/index/stops/1:80002933,0,
80002936,02936,Opp Bandar Baru Uda,Jalan Skudai Jalan Skudai Kiri Johor- Malaysia,1.48883,103.71243,80002936,http://otp.transitos.io/otpws/api/cities/2/index/stops/1:80002936,0,
80011300,11300,Klinik Kesihatan Tampoi,BA:Klinik Kesihatan Tampoi,1.49244,103.70725,80011300,http://otp.transitos.io/otpws/api/cities/2/index/stops/1:80011300,0,
80011302,11302,SK Pengkalan Rinting,BA:SK Pengkalan Rinting,1.49382,103.70509,80011302,http://otp.transitos.io/otpws/api/cities/2/index/stops/1:80011302,0,
80011305,11305,Opp Plaza Angsana,BA:Opp Plaza Angsana,1.49493,103.70351,80011305,http://otp.transitos.io/otpws/api/cities/2/index/stops/1:80011305,0,
80002935,02935,Kampong Pasir,108- Johor Taman Tampoi- Malaysia Johor- Malaysia,1.49665,103.7014,80002935,http://otp.transitos.io/otpws/api/cities/2/index/stops/1:80002935,0,
80003195,03195,SK Kampung Pasir / OPP Giant Tampoi,Jalan Skudai Lorong Mempelam Johor- Malaysia,1.49887,103.6983,80003195,http://otp.transitos.io/otpws/api/cities/2/index/stops/1:80003195,0,
80003199,03199,OPP Kompleks Pekan Rabu,Jalan Skudai Jalan Cempedak Johor- Malaysia,1.50074,103.69568,80003199,http://otp.transitos.io/otpws/api/cities/2/index/stops/1:80003199,0,
80004174,04174,Kipmart Tampoi,Skudai Highway- Johor Taman Tampoi Indah- Malaysia Johor- Malaysia,1.50824,103.68931,80004174,http://otp.transitos.io/otpws/api/cities/2/index/stops/1:80004174,0,
80011335,11335,OPP TAMAN JOHOR,BA:OPP TAMAN JOHOR,1.51163,103.68694,80011335,http://otp.transitos.io/otpws/api/cities/2/index/stops/1:80011335,0,
80008491,08491,Opp Paradigm Mall,Jalan Bertingkat Skudai Jalan Bertingkat Skudai Johor,1.51525,103.68457,80008491,http://otp.transitos.io/otpws/api/cities/2/index/stops/1:80008491,0,
80000410,00410,Mcdonalds Taman Sutera,Skudai Highway- Johor Taman Tampoi Indah- Malaysia Johor- Malaysia,1.52311,103.67908,80000410,http://otp.transitos.io/otpws/api/cities/2/index/stops/1:80000410,0,
80000412,00412,OPP Petron TUTA,Skudai Interchange- Johor Taman Skudai- Malaysia Johor- Malaysia,1.52808,103.67058,80000412,http://otp.transitos.io/otpws/api/cities/2/index/stops/1:80000412,0,
80003171,03171,TM Skudai,Skudai Interchange- Johor Taman Skudai- Malaysia Johor- Malaysia,1.53504,103.66477,80003171,http://otp.transitos.io/otpws/api/cities/2/index/stops/1:80003171,0,
80003170,03170,MBIP Skudai,Skudai Highway- Johor Kampung Poh Che Leng- Malaysia Johor- Malaysia,1.53675,103.66318,80003170,http://otp.transitos.io/otpws/api/cities/2/index/stops/1:80003170,0,
80003169,03169,Pejabat Pos Skudai,Skudai Highway- Johor Kampung Poh Che Leng- Malaysia Johor- Malaysia,1.53952,103.66067,80003169,http://otp.transitos.io/otpws/api/cities/2/index/stops/1:80003169,0,
80011522,11522,Opp Skudai Parade,BA:Opp Skudai Parade,1.5415614731517646,103.65878422583813,80011522,http://otp.transitos.io/otpws/api/cities/2/index/stops/1:80011522,0,
80003168,03168,Shell Taman Puteri Skudai,Skudai Highway- Johor Kampung Poh Che Leng- Malaysia Johor- Malaysia,1.54483,103.65729,80003168,http://otp.transitos.io/otpws/api/cities/2/index/stops/1:80003168,0,
80003167,03167,Opp Kuarters PUB,112- Johor kulai Johor- Malaysia,1.55379,103.65847,80003167,http://otp.transitos.io/otpws/api/cities/2/index/stops/1:80003167,0,
80003089,03089,UTM Skudai,Skudai Highway- Johor Kulai Johor- Malaysia,1.56496,103.6605,80003089,http://otp.transitos.io/otpws/api/cities/2/index/stops/1:80003089,0,
80003091,03091,Taman Teknologi,Skudai Highway- Johor Kulai Johor- Malaysia,1.57097,103.66052,80003091,http://otp.transitos.io/otpws/api/cities/2/index/stops/1:80003091,0,
80010273,10273,Opp kampung Sepakat,BA:Opp kampung Sepakat,1.58197,103.65337,80010273,http://otp.transitos.io/otpws/api/cities/2/index/stops/1:80010273,0,
80012244,12244,Taman Scientex Senai,BA:Taman Scientex Senai,1.58407,103.65027,80012244,http://otp.transitos.io/otpws/api/cities/2/index/stops/1:80012244,0,
80003166,03166,Sepakat Jaya,Lebuhraya Senai Taman Aman Johor- Malaysia,1.59027,103.64784,80003166,http://otp.transitos.io/otpws/api/cities/2/index/stops/1:80003166,0,
80003165,03165,SK Senai,Jalan Persekutuan 1- Johor skudai Johor- Malaysia,1.59554,103.64551,80003165,http://otp.transitos.io/otpws/api/cities/2/index/stops/1:80003165,0,
80004176,04176,OPP Hab Pekan Senai,Jalan Persekutuan 1- Johor kulai Johor- Malaysia,1.59991,103.64467,80004176,http://otp.transitos.io/otpws/api/cities/2/index/stops/1:80004176,0,
80012242,12242,Masjid Jamek Bandar Senai,BA:Masjid Jamek Bandar Senai,1.60573,103.64764,80012242,http://otp.transitos.io/otpws/api/cities/2/index/stops/1:80012242,0,
80003163,03163,BSN Senai,Lebuhraya Senai Taman Senai Utama Johor- Malaysia,1.61283,103.64722,80003163,http://otp.transitos.io/otpws/api/cities/2/index/stops/1:80003163,0,
80003162,03162,Pejabat LLM,Lebuhraya Senai Taman Senai Utama Johor- Malaysia,1.62027,103.6458,80003162,http://otp.transitos.io/otpws/api/cities/2/index/stops/1:80003162,0,
80003160,03160,Caltex Saleng,Jalan Persekutuan 1- Johor skudai Johor- Malaysia,1.62932,103.63714,80003160,http://otp.transitos.io/otpws/api/cities/2/index/stops/1:80003160,0,
80003158,03158,Petronas Saleng,Jalan Persekutuan 1- Johor skudai Johor- Malaysia,1.63249,103.63364,80003158,http://otp.transitos.io/otpws/api/cities/2/index/stops/1:80003158,0,
80003157,03157,TJ Mart Saleng,Jalan Persekutuan 1- Johor skudai Johor- Malaysia,1.63327,103.63275,80003157,http://otp.transitos.io/otpws/api/cities/2/index/stops/1:80003157,0,
80003156,03156,7-Eleven Saleng,Jalan Persekutuan 1- Johor skudai Johor- Malaysia,1.63523,103.63033,80003156,http://otp.transitos.io/otpws/api/cities/2/index/stops/1:80003156,0,
80003155,03155,Hospital Kulai,Jalan Persekutuan 1- Johor skudai Johor- Malaysia,1.63918,103.62508,80003155,http://otp.transitos.io/otpws/api/cities/2/index/stops/1:80003155,0,
80003144,03144,Pertubuhan Peladang ,Jalan Persekutuan 1- Johor Bandar Indahpura Johor- Malaysia,1.64544,103.61591,80003144,http://otp.transitos.io/otpws/api/cities/2/index/stops/1:80003144,0,
80003143,03143,Indahpura Iris Park,Jalan Persekutuan 1- Johor skudai Johor- Malaysia,1.64748,103.61371,80003143,http://otp.transitos.io/otpws/api/cities/2/index/stops/1:80003143,0,
80003142,03142,Public Bank Kulai,Jalan Persekutuan 1- Johor skudai Johor- Malaysia,1.65118,103.61097,80003142,http://otp.transitos.io/otpws/api/cities/2/index/stops/1:80003142,0,
80011283,11283,Opp Medan Selera Kulai,BA:Opp Medan Selera Kulai,1.65428,103.60954,80011283,http://otp.transitos.io/otpws/api/cities/2/index/stops/1:80011283,0,
80011284,11284,MPKU,BA:MPKU,1.65895,103.60669,80011284,http://otp.transitos.io/otpws/api/cities/2/index/stops/1:80011284,0,
80003140,03140,OPP Arked Mara ,Jalan Persekutuan 1- Johor Taman Kulai Besar Johor- Malaysia,1.66083,103.60428,80003140,http://otp.transitos.io/otpws/api/cities/2/index/stops/1:80003140,0,
80003123,03123,Arked Mara,Jalan Persekutuan 1- Johor skudai Johor- Malaysia,1.66109,103.60393,80003123,http://otp.transitos.io/otpws/api/cities/2/index/stops/1:80003123,0,
80011285,11285,Opp MPKU,BA:Opp MPKU,1.65905,103.60679,80011285,http://otp.transitos.io/otpws/api/cities/2/index/stops/1:80011285,0,
80003122,03122,Medan Selera Kulai,Jalan Persekutuan 1- Johor skudai Johor- Malaysia,1.65438,103.60962,80003122,http://otp.transitos.io/otpws/api/cities/2/index/stops/1:80003122,0,
80003121,03121,OPP Public Bank Kulai,Jalan Susur Kulai 1- Johor skudai Johor- Malaysia,1.65099,103.61133,80003121,http://otp.transitos.io/otpws/api/cities/2/index/stops/1:80003121,0,
80003120,03120,OPP Indahpura Iris Park,Jalan Persekutuan 1- Johor skudai Johor- Malaysia,1.64841,103.61313,80003120,http://otp.transitos.io/otpws/api/cities/2/index/stops/1:80003120,0,
80004275,04275,OPP Pertubuhan Peladang ,Jalan Besar Bandar Indahpura Johor- Malaysia,1.64518,103.61653,80004275,http://otp.transitos.io/otpws/api/cities/2/index/stops/1:80004275,0,
80003117,03117,OPP Hospital Kulai,Jalan Persekutuan 1- Johor kulai Johor- Malaysia,1.63981,103.62447,80003117,http://otp.transitos.io/otpws/api/cities/2/index/stops/1:80003117,0,
80003114,03114,OPP 7-Eleven Saleng,Jalan Persekutuan 1- Johor kulai Johor- Malaysia,1.63584,103.62972,80003114,http://otp.transitos.io/otpws/api/cities/2/index/stops/1:80003114,0,
80008933,08933,Opp TJ Mart Saleng,BA:Opp TJ Mart Saleng,1.633561327222587,103.63262677813464,80008933,http://otp.transitos.io/otpws/api/cities/2/index/stops/1:80008933,0,
80003112,03112,OPP Petronas Saleng,Jalan Persekutuan 1- Johor kulai Johor- Malaysia,1.63293,103.63332,80003112,http://otp.transitos.io/otpws/api/cities/2/index/stops/1:80003112,0,
80003111,03111,OPP Caltex Saleng,Jalan Persekutuan 1- Johor kulai Johor- Malaysia,1.62874,103.63793,80003111,http://otp.transitos.io/otpws/api/cities/2/index/stops/1:80003111,0,
80003110,03110,OPP Pejabat LLM,Jalan Persekutuan 1- Johor Senai Johor- Malaysia,1.62052,103.64603,80003110,http://otp.transitos.io/otpws/api/cities/2/index/stops/1:80003110,0,
80004226,04226,OPP BSN Senai,jalan besar kulai senai johor,1.61284,103.64736,80004226,http://otp.transitos.io/otpws/api/cities/2/index/stops/1:80004226,0,
80012243,12243,Opp Masjid Jamek Bandar Senai,BA:Opp Masjid Jamek Bandar Senai,1.60639,103.64782,80012243,http://otp.transitos.io/otpws/api/cities/2/index/stops/1:80012243,0,
80003095,03095,Hab Pekan Senai,Jalan Persekutuan 1- Johor Kulai Johor- Malaysia,1.60129,103.64505,80003095,http://otp.transitos.io/otpws/api/cities/2/index/stops/1:80003095,0,
80003094,03094,OPP SK Senai,Jalan Persekutuan 1- Johor Kulai Johor- Malaysia,1.59698,103.64551,80003094,http://otp.transitos.io/otpws/api/cities/2/index/stops/1:80003094,0,
80003092,03092,OPP Sepakat Jaya,Lebuhraya Senai Taman Aman Johor- Malaysia,1.5911,103.64792,80003092,http://otp.transitos.io/otpws/api/cities/2/index/stops/1:80003092,0,
80012245,12245,Opp Taman Scientex Senai,BA:Opp Taman Scientex Senai,1.58417,103.65035,80012245,http://otp.transitos.io/otpws/api/cities/2/index/stops/1:80012245,0,
80010272,10272,Kampung Sepakat,BA:Kampung Sepakat,1.58173,103.65426,80010272,http://otp.transitos.io/otpws/api/cities/2/index/stops/1:80010272,0,
80012241,12241,Opp Taman Teknologi,BA:Opp Taman Teknologi,1.57091,103.6608,80012241,http://otp.transitos.io/otpws/api/cities/2/index/stops/1:80012241,0,
80012240,12240,Opp UTM Skudai,BA:Opp UTM Skudai,1.5654,103.66071,80012240,http://otp.transitos.io/otpws/api/cities/2/index/stops/1:80012240,0,
80003088,03088,Kuarters PUB,Skudai Highway- Johor Kulai Johor- Malaysia,1.55472,103.65882,80003088,http://otp.transitos.io/otpws/api/cities/2/index/stops/1:80003088,0,
80011554,11554,Opp Shell Tmn Puteri Skudai,BA:Opp Shell Tmn Puteri Skudai,1.54437,103.65784,80011554,http://otp.transitos.io/otpws/api/cities/2/index/stops/1:80011554,0,
80003087,03087,Skudai Parade,Skudai Highway- Johor Kampung Poh Che Leng- Malaysia Johor- Malaysia,1.54212,103.65897,80003087,http://otp.transitos.io/otpws/api/cities/2/index/stops/1:80003087,0,
80008641,08641,Opp Pejabat Pos Skudai,BA:Opp Pejabat Pos Skudai,1.53982,103.6606,80008641,http://otp.transitos.io/otpws/api/cities/2/index/stops/1:80008641,0,
80008637,08637,Opp MBIP Skudai,BA:Opp MBIP Skudai,1.5375,103.66291,80008637,http://otp.transitos.io/otpws/api/cities/2/index/stops/1:80008637,0,
80011555,11555,Opp TM Skudai,BA:Opp TM Skudai,1.5356996391339357,103.66472268303048,80011555,http://otp.transitos.io/otpws/api/cities/2/index/stops/1:80011555,0,
80003083,03083,Petron TUTA,Jalan Shahbandar 8- Johor Taman Skudai- Malaysia Johor- Malaysia,1.52811,103.67087,80003083,http://otp.transitos.io/otpws/api/cities/2/index/stops/1:80003083,0,
80007594,07594,Opp Mcdonalds Taman Sutera,Skudai Highway- Johor Taman Dato Penggawa Barat- Malaysia Johor- Malaysia,1.52261,103.67966,80007594,http://otp.transitos.io/otpws/api/cities/2/index/stops/1:80007594,0,
80008490,08490,Paradigm Mall,Jalan Bertingkat Skudai Jalan Bertingkat Skudai Johor,1.51513,103.68491,80008490,http://otp.transitos.io/otpws/api/cities/2/index/stops/1:80008490,0,
80008035,08035,Taman Johor,No results No results No results,1.51153,103.68748,80008035,http://otp.transitos.io/otpws/api/cities/2/index/stops/1:80008035,0,
80003207,03207,OPP Kipmart Tampoi,Skudai Highway- Johor Taman Dato Penggawa Barat- Malaysia Johor- Malaysia,1.50915,103.68898,80003207,http://otp.transitos.io/otpws/api/cities/2/index/stops/1:80003207,0,
80003159,03159,Kompleks Pekan Rabu,Jalan Skudai Pekan Rabu Johor- Malaysia,1.50081,103.69585,80003159,http://otp.transitos.io/otpws/api/cities/2/index/stops/1:80003159,0,
80003161,03161,Opp SK Kampung Pasir / Giant Tampoi,Skudai Highway- Johor Taman Tampoi- Malaysia Johor- Malaysia,1.49892,103.69862,80003161,http://otp.transitos.io/otpws/api/cities/2/index/stops/1:80003161,0,
80004173,04173,Opp Kampung Pasir,108- Johor Taman Tampoi- Malaysia Johor- Malaysia,1.49698,103.70152,80004173,http://otp.transitos.io/otpws/api/cities/2/index/stops/1:80004173,0,
80011304,11304,Plaza Angsana,BA:Plaza Angsana,1.49582,103.70333,80011304,http://otp.transitos.io/otpws/api/cities/2/index/stops/1:80011304,0,
80011303,11303,Opp SK Pengkalan Rinting,BA:Opp SK Pengkalan Rinting,1.49447,103.70527,80011303,http://otp.transitos.io/otpws/api/cities/2/index/stops/1:80011303,0,
80011301,11301,Opp Klinik Kesihatan Tampoi,BA:Opp Klinik Kesihatan Tampoi,1.49263,103.70768,80011301,http://otp.transitos.io/otpws/api/cities/2/index/stops/1:80011301,0,
80004181,04181,Bandar Baru Uda,Jalan Padi 1- Johor Kampung Usaha Jaya- Malaysia Johor- Malaysia,1.48961,103.71202,80004181,http://otp.transitos.io/otpws/api/cities/2/index/stops/1:80004181,0,
80011332,11332,Opp Tune Hotel,BA:Opp Tune Hotel,1.48383,103.7197,80011332,http://otp.transitos.io/otpws/api/cities/2/index/stops/1:80011332,0,
80003175,03175,OPP Danga Bay,Jalan Skudai- Johor Kampung Jawa- Malaysia Johor- Malaysia,1.47516,103.72474,80003175,http://otp.transitos.io/otpws/api/cities/2/index/stops/1:80003175,0,
80003177,03177,M-Suites,Jalan Skudai- Johor Kampung Jawa- Malaysia Johor- Malaysia,1.46473,103.72993,80003177,http://otp.transitos.io/otpws/api/cities/2/index/stops/1:80003177,0,
80003180,03180,Dataran Bandaraya Johor Bahru / Sri Gela,Jalan Titiwangsa 12- Johor Kampung Mohd Amin- Malaysia Johor- Malaysia,1.45947,103.73857,80003180,http://otp.transitos.io/otpws/api/cities/2/index/stops/1:80003180,0,
80004171,04171,Hospital Sultanah Aminah,Jalan Abu Bakar- Johor Kampung Gertak Merah- Malaysia Johor- Malaysia,1.45748,103.74656,80004171,http://otp.transitos.io/otpws/api/cities/2/index/stops/1:80004171,0,
80003183,03183,Pusat Islam Negeri Johor,Jalan Skudai Pusat Islam Negeri Johor Johor- Malaysia,1.45676,103.74912,80003183,http://otp.transitos.io/otpws/api/cities/2/index/stops/1:80003183,0,
80004358,04358,SMK Skudai,Skudai Pontian Highway- Malaysia Taman Sri Skudai- Malaysia johor,1.54873,103.65399,80004358,http://otp.transitos.io/otpws/api/cities/2/index/stops/1:80004358,0,
80004356,04356,TAMAN SRI SKUDAI,Skudai Pontian Highway- Malaysia Taman Sri Skudai- Malaysia johor ,1.54969,103.65196,80004356,http://otp.transitos.io/otpws/api/cities/2/index/stops/1:80004356,0,
80011523,11523,Taman Desa Skudai,BA:Taman Desa Skudai,1.5464369805422322,103.64456754648978,80011523,http://otp.transitos.io/otpws/api/cities/2/index/stops/1:80011523,0,
80007741,07741,BHP Tmn Desa Skudai,Jalan Sejahtera 1- Johor Taman Desa Skudai- Malaysia Johor- Malaysia,1.54457,103.64393,80007741,http://otp.transitos.io/otpws/api/cities/2/index/stops/1:80007741,0,
80007740,07740,Opp Hostel Kilang,Jalan Sejahtera 1- Johor Taman Desa Skudai- Malaysia Johor- Malaysia,1.54114,103.64133,80007740,http://otp.transitos.io/otpws/api/cities/2/index/stops/1:80007740,0,
80011525,11525,Desa Skudai Apartment,BA:Desa Skudai Apartment,1.5370151718432798,103.63498075905956,80011525,http://otp.transitos.io/otpws/api/cities/2/index/stops/1:80011525,0,
80011527,11527,Perumahan Staf UTM Desa Skudai,BA:Perumahan Staf UTM Desa Skudai,1.5365,103.63342,80011527,http://otp.transitos.io/otpws/api/cities/2/index/stops/1:80011527,0,
80011529,11529,SMK Taman Universiti 2,BA:SMK Taman Universiti 2,1.535683633544582,103.63262492860024,80011529,http://otp.transitos.io/otpws/api/cities/2/index/stops/1:80011529,0,
80004199,04199,Terminal Taman Universiti,Jalan Kebudayaan- Johor Taman Universiti- Malaysia Johor- Malaysia,1.53833,103.62836,80004199,http://otp.transitos.io/otpws/api/cities/2/index/stops/1:80004199,0,
80004366,04366,Medan Selera MBIP,Jalan Kebudayaan- Johor Taman Universiti- Malaysia Johor- Malaysia,1.53558,103.62818,80004366,http://otp.transitos.io/otpws/api/cities/2/index/stops/1:80004366,0,
80004365,04365,SK Taman Universiti 4,Jalan Kebudayaan- Johor Taman Skudai Indah- Malaysia Johor- Malaysia,1.53427,103.62701,80004365,http://otp.transitos.io/otpws/api/cities/2/index/stops/1:80004365,0,
80004317,04317,Opp Masjid Tan Sri Ainuddin,Jalan Kebudayaan- Johor Taman Universiti- Malaysia Johor- Malaysia,1.53022,103.62352,80004317,http://otp.transitos.io/otpws/api/cities/2/index/stops/1:80004317,0,
80004369,04369,SImpang Jalan Kemuliaan 21,Jalan Kemuliaan- Johor Taman Universiti- Malaysia Johor- Malaysia,1.52912,103.62434,80004369,http://otp.transitos.io/otpws/api/cities/2/index/stops/1:80004369,0,
80004345,04345,SImpang Jalan Kemuliaan 30,Jalan Kemuliaan- Johor Taman Universiti- Malaysia Johor- Malaysia,1.52689,103.62491,80004345,http://otp.transitos.io/otpws/api/cities/2/index/stops/1:80004345,0,
80004370,04370,Surau Al Falah Taman U,Jalan Kemuliaan- Johor Taman Universiti- Malaysia Johor- Malaysia,1.52489,103.62155,80004370,http://otp.transitos.io/otpws/api/cities/2/index/stops/1:80004370,0,
80004347,04347,SK Taman Universiti 3,Jalan Kemuliaan- Johor Taman Universiti- Malaysia Johor- Malaysia,1.52658,103.61965,80004347,http://otp.transitos.io/otpws/api/cities/2/index/stops/1:80004347,0,
80010317,10317,SImpang Jalan Kemuliaan 9,BA:SImpang Jalan Kemuliaan 9,1.52924,103.61981,80010317,http://otp.transitos.io/otpws/api/cities/2/index/stops/1:80010317,0,
80012299,12299,Simpang Jalan Kemuliaan 2,BA:Simpang Jalan Kemuliaan 2,1.53087,103.61999,80012299,http://otp.transitos.io/otpws/api/cities/2/index/stops/1:80012299,0,
80008643,08643,Opp ZY Motorsport,BA:Opp ZY Motorsport,1.53073,103.61862,80008643,http://otp.transitos.io/otpws/api/cities/2/index/stops/1:80008643,0,
80004371,04371,Jalan Penyiaran,Jalan Penyiaran- Johor Taman Universiti- Malaysia Johor- Malaysia,1.52952,103.61659,80004371,http://otp.transitos.io/otpws/api/cities/2/index/stops/1:80004371,0,
80004373,04373,SK Taman Universiti 2,Jalan Penyiaran- Johor Taman Universiti- Malaysia Johor- Malaysia,1.53212,103.61377,80004373,http://otp.transitos.io/otpws/api/cities/2/index/stops/1:80004373,0,
80004374,04374,SA Taman Universiti,Jalan Penyiaran- Johor Taman Universiti- Malaysia Johor- Malaysia,1.53401,103.61237,80004374,http://otp.transitos.io/otpws/api/cities/2/index/stops/1:80004374,0,
80004351,04351,Surau Al Mukminun Taman U,Jalan Penyiaran- Johor Taman Universiti- Malaysia Johor- Malaysia,1.53571,103.61411,80004351,http://otp.transitos.io/otpws/api/cities/2/index/stops/1:80004351,0,
80004375,04375,Simpang Jalan Penyiaran 51,Jalan Penyiaran- Johor Taman Universiti- Malaysia Johor- Malaysia,1.53718,103.61565,80004375,http://otp.transitos.io/otpws/api/cities/2/index/stops/1:80004375,0,
80004353,04353,SK Taman Universiti 1,Jalan Penyiaran- Johor Taman Universiti- Malaysia Johor- Malaysia,1.53608,103.61822,80004353,http://otp.transitos.io/otpws/api/cities/2/index/stops/1:80004353,0,
80012300,12300,Simpang Jalan Penyiaran 9,BA:Simpang Jalan Penyiaran 9,1.53385,103.62057,80012300,http://otp.transitos.io/otpws/api/cities/2/index/stops/1:80012300,0,
80004377,04377,Kelab Sukan dan Rekreasi Taman Universit,Jalan Pendidikan- Johor Taman Universiti- Malaysia Johor- Malaysia,1.53408,103.62178,80004377,http://otp.transitos.io/otpws/api/cities/2/index/stops/1:80004377,0,
80004378,04378,Kawasan Perindustrian Taman Universiti,Jalan Pendidikan- Johor Taman Universiti- Malaysia Johor- Malaysia,1.53597,103.62366,80004378,http://otp.transitos.io/otpws/api/cities/2/index/stops/1:80004378,0,
80012302,12302,Opp Perpustakaan Awam Taman Universiti,BA:Opp Perpustakaan Awam Taman Universiti,1.53792,103.62555,80012302,http://otp.transitos.io/otpws/api/cities/2/index/stops/1:80012302,0,
80004354,04354,Opp AEON Taman Universiti,Jalan Pendidikan- Johor Taman Universiti- Malaysia Johor- Malaysia,1.54144,103.62828,80004354,http://otp.transitos.io/otpws/api/cities/2/index/stops/1:80004354,0,
80011534,11534,Opp Taman Awam MBIP Taman U,BA:Opp Taman Awam MBIP Taman U,1.5426601237850788,103.62695483034852,80011534,http://otp.transitos.io/otpws/api/cities/2/index/stops/1:80011534,0,
80004321,04321,Opp Pangsapuri Meranti,Jalan Pulai- Johor Taman Pulai Utama- Malaysia Johor- Malaysia,1.54468,103.62485,80004321,http://otp.transitos.io/otpws/api/cities/2/index/stops/1:80004321,0,
80004322,04322,U MALL,Jalan Perdagangan;Jalan Pulai 19- Johor Taman Pulai Utama- Malaysia Johor- Malaysia,1.54666,103.62268,80004322,http://otp.transitos.io/otpws/api/cities/2/index/stops/1:80004322,0,
80010310,10310,Taman Pulai Flora,BA:Taman Pulai Flora,1.55067,103.62434,80010310,http://otp.transitos.io/otpws/api/cities/2/index/stops/1:80010310,0,
80004395,04395,Petron Jalan Sri Pulai,Jalan Sri Pulai- Malaysia Taman Sri Pulai- Malaysia johor,1.56409,103.6188,80004395,http://otp.transitos.io/otpws/api/cities/2/index/stops/1:80004395,0,
80004382,04382,Medan Selera Tmn Sri Pulai 1,Jalan Sri Pulai- Malaysia Taman Sri Pulai- Malaysia johor ,1.56745,103.61881,80004382,http://otp.transitos.io/otpws/api/cities/2/index/stops/1:80004382,0,
80004392,04392,Medan Selera Tmn Sri Pulai 2,Jalan Sri Pulai- Johor Taman Teratai- Malaysia Johor- Malaysia,1.56848,103.61883,80004392,http://otp.transitos.io/otpws/api/cities/2/index/stops/1:80004392,0,
80010286,10286,Sekolah Agama Taman Sri Pulai,BA:Sekolah Agama Taman Sri Pulai,1.57026,103.61873,80010286,http://otp.transitos.io/otpws/api/cities/2/index/stops/1:80010286,0,
80004391,04391,Taman Sri Pulai (Jalan Batai 9),Jalan Rotan- Malaysia Taman Teratai- Malaysia johor,1.57133,103.61695,80004391,http://otp.transitos.io/otpws/api/cities/2/index/stops/1:80004391,0,
80004325,04325,Taman Teratai 1,Jalan Batai 13- Johor Taman Teratai- Malaysia Johor- Malaysia,1.57142,103.6155,80004325,http://otp.transitos.io/otpws/api/cities/2/index/stops/1:80004325,0,
80004385,04385,Taman Teratai 2,Jalan Rotan- Malaysia Taman Teratai- Malaysia johor,1.57144,103.61345,80004385,http://otp.transitos.io/otpws/api/cities/2/index/stops/1:80004385,0,
80011542,11542,Jalan Palas 5 Taman Teratai,BA:Jalan Palas 5 Taman Teratai,1.5705908922033176,103.61223047196947,80011542,http://otp.transitos.io/otpws/api/cities/2/index/stops/1:80011542,0,
80011543,11543,Jalan Teratai Taman Teratai,BA:Jalan Teratai Taman Teratai,1.57005889599442,103.6123976791684,80011543,http://otp.transitos.io/otpws/api/cities/2/index/stops/1:80011543,0,
80004327,04327,SRI PULAI PERDANA (1),Skudai Pontian Highway- Malaysia Taman Teratai- Malaysia Johor- Malaysia,1.56574,103.61151,80004327,http://otp.transitos.io/otpws/api/cities/2/index/stops/1:80004327,0,
80004417,04417,Sri Pulai Perdana (2),Skudai Pontian Highway- Malaysia Taman Teratai- Malaysia johor ,1.56631,103.60915,80004417,http://otp.transitos.io/otpws/api/cities/2/index/stops/1:80004417,0,
80004398,04398,Opp Kampung Nesa,Skudai Pontian Highway- Johor Taman Teratai- Malaysia Johor- Malaysia,1.56651,103.60628,80004398,http://otp.transitos.io/otpws/api/cities/2/index/stops/1:80004398,0,
