stop_id,stop_code,stop_name,stop_desc,stop_lat,stop_lon,zone_id,stop_url,location_type,parent_station
80004251,04251,JB Sentral,CIQ (Motorcycles and Bicycles- Johor Bukit Timbalan- Malaysia Johor- Malaysia,1.46352,103.76496,80004251,http://otp.transitos.io/otpws/api/cities/2/index/stops/1:80004251,0,
80011298,11298,Wisma Peladang,BA:Wisma Peladang,1.45602,103.7654,80011298,http://otp.transitos.io/otpws/api/cities/2/index/stops/1:80011298,0,
80011568,11568,Opp Pejabat Pos Besar,BA:Opp Pejabat Pos Besar,1.45487,103.76126,80011568,http://otp.transitos.io/otpws/api/cities/2/index/stops/1:80011568,0,
80013277,13277,Opp Johor Tourist Information Center,BA:Opp Johor Tourist Information Center,1.45723,103.75915,80013277,http://otp.transitos.io/otpws/api/cities/2/index/stops/1:80013277,0,
80013278,13278,Opp Menara TH,BA:Opp Menara TH,1.45782,103.75904,80013278,http://otp.transitos.io/otpws/api/cities/2/index/stops/1:80013278,0,
80013279,13279,Opp Wisma Persekutuan,BA:Opp Wisma Persekutuan,1.45996,103.75839,80013279,http://otp.transitos.io/otpws/api/cities/2/index/stops/1:80013279,0,
80013280,13280,Opp Sekolah Kebangsaan IJ Convent,BA:Opp Sekolah Kebangsaan IJ Convent,1.46386,103.75489,80013280,http://otp.transitos.io/otpws/api/cities/2/index/stops/1:80013280,0,
80013281,13281,Opp Pusat Khidmat Pelanggan TNB JB,BA:Opp Pusat Khidmat Pelanggan TNB JB,1.46653,103.75269,80013281,http://otp.transitos.io/otpws/api/cities/2/index/stops/1:80013281,0,
80003046,03046,Opp IPK Johor,Tebrau Highway- Malaysia Kampung Wadi Hana- Malaysia Johor- Malaysia,1.47642,103.76329,80003046,http://otp.transitos.io/otpws/api/cities/2/index/stops/1:80003046,0,
80003243,03243,Grand Paragon Hotel,Jalan Harimau- Johor Century Garden- Malaysia Johor- Malaysia,1.48056,103.76221,80003243,http://otp.transitos.io/otpws/api/cities/2/index/stops/1:80003243,0,
80004281,04281,KSL City,Jalan Seladang- Malaysia Kampung Wadi Hana- Malaysia Johor Bahru,1.48571,103.76297,80004281,http://otp.transitos.io/otpws/api/cities/2/index/stops/1:80004281,0,
80004286,04286,Opp Holiday Plaza,Car Park (Holiday Plaza- Johor Century Garden- Malaysia Johor- Malaysia,1.48807,103.75941,80004286,http://otp.transitos.io/otpws/api/cities/2/index/stops/1:80004286,0,
80013276,13276,Pusat Latihan JPJ,BA:Pusat Latihan JPJ,1.4834116731187472,103.754095,80013276,http://otp.transitos.io/otpws/api/cities/2/index/stops/1:80013276,0,
80004289,04289,Danga City Mall,Skudai Highway- Johor Kampung Ngee Heng- Malaysia Johor- Malaysia,1.4758,103.75446,80004289,http://otp.transitos.io/otpws/api/cities/2/index/stops/1:80004289,0,
80012159,12159,Pusat Khidmat Pelanggan TNB @ Johor Bahr,BA:Pusat Khidmat Pelanggan TNB @ Johor Bahr,1.46692,103.75249,80012159,http://otp.transitos.io/otpws/api/cities/2/index/stops/1:80012159,0,
80012158,12158,Sekolah Kebangsaan IJ Convent,BA:Sekolah Kebangsaan IJ Convent,1.46453,103.75429,80012158,http://otp.transitos.io/otpws/api/cities/2/index/stops/1:80012158,0,
80012157,12157,Wisma Persekutuan,BA:Wisma Persekutuan,1.46062,103.75777,80012157,http://otp.transitos.io/otpws/api/cities/2/index/stops/1:80012157,0,
80012156,12156,Menara TH,BA:Menara TH,1.45822,103.75896,80012156,http://otp.transitos.io/otpws/api/cities/2/index/stops/1:80012156,0,
80008097,08097,Johor Tourist Information Center,Jalan Ayer Molek Jalan Ibrahim Johor,1.4568,103.75929,80008097,http://otp.transitos.io/otpws/api/cities/2/index/stops/1:80008097,0,
80004252,04252,Pejabat Pos Besar,Jalan Dato Onn- Johor Bukit Timbalan- Malaysia Johor- Malaysia,1.45546,103.76188,80004252,http://otp.transitos.io/otpws/api/cities/2/index/stops/1:80004252,0,
80011351,11351,Jb Sentral 2,BA:Jb Sentral 2,1.46297,103.76529,80011351,http://otp.transitos.io/otpws/api/cities/2/index/stops/1:80011351,0,
80004488,04488,Terminal Bas Masai,Jalan Masai Lama Taman Masai Utama Johor- Malaysia,1.48682,103.88541,80004488,http://otp.transitos.io/otpws/api/cities/2/index/stops/1:80004488,0,
80011515,11515,JNT Taman Masai Utama,BA:JNT Taman Masai Utama,1.4880839968651847,103.88153150031668,80011515,http://otp.transitos.io/otpws/api/cities/2/index/stops/1:80011515,0,
80011516,11516,Opp Kampung Baru Masai,BA:Opp Kampung Baru Masai,1.4904403056385378,103.88084737897998,80011516,http://otp.transitos.io/otpws/api/cities/2/index/stops/1:80011516,0,
80002872,02872,Dewanraya Bandar Seri Alam Jalan Suria,Jalan Masai Lama- Johor Taman Rinting- Malaysia Johor- Malaysia,1.49621,103.88088,80002872,http://otp.transitos.io/otpws/api/cities/2/index/stops/1:80002872,0,
80002873,02873,Jalan Suria 80,Jalan Masai Lama- Johor Taman Rinting- Malaysia Johor- Malaysia,1.49608,103.88322,80002873,http://otp.transitos.io/otpws/api/cities/2/index/stops/1:80002873,0,
80011633,11633,SK Seri Alam 2,BA:SK Seri Alam 2,1.49544,103.88458,80011633,http://otp.transitos.io/otpws/api/cities/2/index/stops/1:80011633,0,
80002859,02859,Pangsapuri Sri Intan,Jalan Tasek- Johor Taman Rinting- Malaysia Johor- Malaysia,1.49743,103.87618,80002859,http://otp.transitos.io/otpws/api/cities/2/index/stops/1:80002859,0,
80002860,02860,Jalan Tasek 10,Jalan Tasek 1- Johor Taman Rinting- Malaysia Johor- Malaysia,1.50048,103.8799,80002860,http://otp.transitos.io/otpws/api/cities/2/index/stops/1:80002860,0,
80002861,02861,Jalan Tasek 15,Persiaran Seri Alam- Johor Bandar Baru Seri Alam- Malaysia Johor- Malaysia,1.50046,103.88249,80002861,http://otp.transitos.io/otpws/api/cities/2/index/stops/1:80002861,0,
80002862,02862,Jalan Tasek 20,Persiaran Seri Alam- Johor Bandar Baru Seri Alam- Malaysia Johor- Malaysia,1.5012,103.88461,80002862,http://otp.transitos.io/otpws/api/cities/2/index/stops/1:80002862,0,
80002863,02863,Jalan Tasek 24,Persiaran Seri Alam- Johor Bandar Baru Seri Alam- Malaysia Johor- Malaysia,1.50219,103.88573,80002863,http://otp.transitos.io/otpws/api/cities/2/index/stops/1:80002863,0,
80002866,02866,Pangsapuri Sri Ilham,Persiaran Seri Alam- Johor Bandar Baru Seri Alam- Malaysia Johor- Malaysia,1.50398,103.88519,80002866,http://otp.transitos.io/otpws/api/cities/2/index/stops/1:80002866,0,
80002867,02867,PPR Seri Alam,Persiaran Seri Alam- Johor Taman Flora Heights- Malaysia Johor- Malaysia,1.50785,103.88826,80002867,http://otp.transitos.io/otpws/api/cities/2/index/stops/1:80002867,0,
80002869,02869,Opp Vista Seri Alam,Persiaran Seri Alam- Johor Taman Flora Heights- Malaysia Johor- Malaysia,1.50793,103.88601,80002869,http://otp.transitos.io/otpws/api/cities/2/index/stops/1:80002869,0,
80013282,13282,SJK C NAM HENG,BA:SJK C NAM HENG,1.50316,103.87965,80013282,http://otp.transitos.io/otpws/api/cities/2/index/stops/1:80013282,0,
80007586,07586,Regency Specialist Hospital,Jalan Suria 1- Johor Taman Rinting- Malaysia Johor- Malaysia,1.49699,103.87177,80007586,http://otp.transitos.io/otpws/api/cities/2/index/stops/1:80007586,0,
80002870,02870,Maybank Bandar Seri Alam,Jalan Masai Lama- Johor Taman Rinting- Malaysia Johor- Malaysia,1.49317,103.87432,80002870,http://otp.transitos.io/otpws/api/cities/2/index/stops/1:80002870,0,
80002875,02875,SMK Dato Penggawa Timur,Jalan Masai Lama- Johor Taman Rinting- Malaysia Johor- Malaysia,1.49259,103.87802,80002875,http://otp.transitos.io/otpws/api/cities/2/index/stops/1:80002875,0,
80011498,11498,Kampung Baru Masai,BA:Kampung Baru Masai,1.49044,103.88103,80011498,http://otp.transitos.io/otpws/api/cities/2/index/stops/1:80011498,0,
80011499,11499,OPP JNT Taman Masai Utama,BA:OPP JNT Taman Masai Utama,1.48789,103.88181,80011499,http://otp.transitos.io/otpws/api/cities/2/index/stops/1:80011499,0,
80011746,11746,Terminal Bas Masai 2,BA:Terminal Bas Masai 2,1.48661,103.88494,80011746,http://otp.transitos.io/otpws/api/cities/2/index/stops/1:80011746,0,
80000293,00293,Terminal Kulai,Jalan Lengkongan- Johor Kulai Johor- Malaysia,1.66247,103.59879,80000293,http://otp.transitos.io/otpws/api/cities/2/index/stops/1:80000293,0,
80003138,03138,SMK Munshi Abdullah Kulai,Jalan Tun Abdul Razak- Johor skudai Johor- Malaysia,1.66457,103.59569,80003138,http://otp.transitos.io/otpws/api/cities/2/index/stops/1:80003138,0,
80003137,03137,Jejantas Taman Sri Kulai,Jalan Tun Abdul Razak- Johor skudai Johor- Malaysia,1.66669,103.5913,80003137,http://otp.transitos.io/otpws/api/cities/2/index/stops/1:80003137,0,
80003136,03136,Shell Kulai,Jalan Tun Abdul Razak- Johor skudai Johor- Malaysia,1.66805,103.58817,80003136,http://otp.transitos.io/otpws/api/cities/2/index/stops/1:80003136,0,
80012289,12289,Opp Simpang Jln Sengkang,BA:Opp Simpang Jln Sengkang,1.66891,103.58294,80012289,http://otp.transitos.io/otpws/api/cities/2/index/stops/1:80012289,0,
80008774,08774,Taman Kota Kulai,BA:Taman Kota Kulai,1.66866,103.58029,80008774,http://otp.transitos.io/otpws/api/cities/2/index/stops/1:80008774,0,
80012290,12290,Opp Lotus Kulai,BA:Opp Lotus Kulai,1.6676,103.57679,80012290,http://otp.transitos.io/otpws/api/cities/2/index/stops/1:80012290,0,
80010255,10255,Taman Desa Baiduri,BA:Taman Desa Baiduri,1.66623,103.57721,80010255,http://otp.transitos.io/otpws/api/cities/2/index/stops/1:80010255,0,
80003128,03128,Opp Taman Putri Persiaran Sri Putri 3(1),Persiaran Sri Putri  3 Taman Timur Johor- Malaysia,1.66361,103.57816,80003128,http://otp.transitos.io/otpws/api/cities/2/index/stops/1:80003128,0,
80012292,12292,Stadium Kulai,BA:Stadium Kulai,1.66064,103.57552,80012292,http://otp.transitos.io/otpws/api/cities/2/index/stops/1:80012292,0,
80007761,07761,Opp Econsave Taman Putri,Jalan Sri Putri 8/8- Johor Senai Johor- Malaysia,1.65845,103.57844,80007761,http://otp.transitos.io/otpws/api/cities/2/index/stops/1:80007761,0,
80012293,12293,Opp Taman Putri Persiaran Sri Putri 3(2),BA:Opp Taman Putri Persiaran Sri Putri 3(2),1.65682,103.58255,80012293,http://otp.transitos.io/otpws/api/cities/2/index/stops/1:80012293,0,
80003134,03134,Flat Taman Putri,Jalan Bunga Rose- Johor skudai Johor- Malaysia,1.65378,103.58232,80003134,http://otp.transitos.io/otpws/api/cities/2/index/stops/1:80003134,0,
80012295,12295,Opp Taman Putri Persiaran Sri Putri 3(3),BA:Opp Taman Putri Persiaran Sri Putri 3(3),1.65093,103.58009,80012295,http://otp.transitos.io/otpws/api/cities/2/index/stops/1:80012295,0,
80003130,03130,Taman Putri Kulai,Jalan Sri Putri 10/1- Johor Senai Johor- Malaysia,1.65132,103.57801,80003130,http://otp.transitos.io/otpws/api/cities/2/index/stops/1:80003130,0,
80003133,03133,OPP SMK Kota Kulai,Jalan Sri Putri 12- Johor skudai Johor- Malaysia,1.65393,103.57565,80003133,http://otp.transitos.io/otpws/api/cities/2/index/stops/1:80003133,0,
80012297,12297,Perumahan Flat Cengal,BA:Perumahan Flat Cengal,1.65417,103.5739,80012297,http://otp.transitos.io/otpws/api/cities/2/index/stops/1:80012297,0,
80005516,05516,Terminal Putri Kulai,Jalan Sawah- Johor Taman Putri Kulai Johor,1.65547,103.57217,80005516,http://otp.transitos.io/otpws/api/cities/2/index/stops/1:80005516,0,
80012298,12298,Opp Perumahan Flat Cengal,BA:Opp Perumahan Flat Cengal,1.65523,103.57459,80012298,http://otp.transitos.io/otpws/api/cities/2/index/stops/1:80012298,0,
80003132,03132,SMK Kota Kulai,Jalan Bunga Rose- Johor skudai Johor- Malaysia,1.65426,103.5754,80003132,http://otp.transitos.io/otpws/api/cities/2/index/stops/1:80003132,0,
80012296,12296,Taman Putri Persiaran Sri Putri 3(3),BA:Taman Putri Persiaran Sri Putri 3(3),1.65097,103.57995,80012296,http://otp.transitos.io/otpws/api/cities/2/index/stops/1:80012296,0,
80003129,03129,Opp Flat Taman Putri,Jalan Bunga Rose- Johor skudai Johor- Malaysia,1.65361,103.58214,80003129,http://otp.transitos.io/otpws/api/cities/2/index/stops/1:80003129,0,
80012294,12294,Taman Putri Persiaran Sri Putri 3(2),BA:Taman Putri Persiaran Sri Putri 3(2),1.65695,103.58219,80012294,http://otp.transitos.io/otpws/api/cities/2/index/stops/1:80012294,0,
80007762,07762,Econsave Taman Putri,Jalan Sri Putri 8/8- Johor Senai Johor- Malaysia,1.65842,103.57844,80007762,http://otp.transitos.io/otpws/api/cities/2/index/stops/1:80007762,0,
80003135,03135,Taman Putri Persiaran Sri Putri 3(1),Jalan Saga- Johor Senai Johor- Malaysia,1.66303,103.57765,80003135,http://otp.transitos.io/otpws/api/cities/2/index/stops/1:80003135,0,
80010256,10256,Opp Jalan Sri Putri 1/15,BA:Opp Jalan Sri Putri 1/15,1.66662,103.57665,80010256,http://otp.transitos.io/otpws/api/cities/2/index/stops/1:80010256,0,
80012291,12291,Lotus Kulai,BA:Lotus Kulai,1.66745,103.57659,80012291,http://otp.transitos.io/otpws/api/cities/2/index/stops/1:80012291,0,
80012288,12288,Opp Taman Kota Kulai,BA:Opp Taman Kota Kulai,1.66877,103.58028,80012288,http://otp.transitos.io/otpws/api/cities/2/index/stops/1:80012288,0,
80003126,03126,Spg Jln Sengkang,Jalan Tun Abdul Razak- Johor skudai Johor- Malaysia,1.66906,103.58279,80003126,http://otp.transitos.io/otpws/api/cities/2/index/stops/1:80003126,0,
80003125,03125,OPP Shell Kulai,Jalan Tun Abdul Razak- Johor skudai Johor- Malaysia,1.66826,103.58785,80003125,http://otp.transitos.io/otpws/api/cities/2/index/stops/1:80003125,0,
80003124,03124,Opp Jejantas Taman Sri Kulai,Jalan Tun Abdul Razak- Johor skudai Johor- Malaysia,1.66658,103.59165,80003124,http://otp.transitos.io/otpws/api/cities/2/index/stops/1:80003124,0,
80011286,11286,Opp SMK Munshi Abdullah,BA:Opp SMK Munshi Abdullah,1.66448,103.59633,80011286,http://otp.transitos.io/otpws/api/cities/2/index/stops/1:80011286,0,
80004257,04257,Jalan Tun Abdul Razak,Jalan Tun Abdul Razak- Johor Taman Dato Onn- Malaysia Johor- Malaysia,1.48037,103.75285,80004257,http://otp.transitos.io/otpws/api/cities/2/index/stops/1:80004257,0,
80004259,04259,Opp Bomba Jalan Tun Abdul Razak,Jalan Tun Abdul Razak- Johor Taman Dato Onn- Malaysia Johor- Malaysia,1.48499,103.74986,80004259,http://otp.transitos.io/otpws/api/cities/2/index/stops/1:80004259,0,
80012161,12161,Opp Menara Kastam Johor Bahru,BA:Opp Menara Kastam Johor Bahru,1.48641,103.74639,80012161,http://otp.transitos.io/otpws/api/cities/2/index/stops/1:80012161,0,
80012162,12162,Opp Perkeso Johor Bahru,BA:Opp Perkeso Johor Bahru,1.48717,103.7452,80012162,http://otp.transitos.io/otpws/api/cities/2/index/stops/1:80012162,0,
80012165,12165,Opp Hospital Pakar Puteri,BA:Opp Hospital Pakar Puteri,1.49019,103.74069,80012165,http://otp.transitos.io/otpws/api/cities/2/index/stops/1:80012165,0,
80011357,11357,OPP DEWAN JKR JOHOR BAHRU,BA:OPP DEWAN JKR JOHOR BAHRU,1.49164263335481,103.740645515202,80011357,http://otp.transitos.io/otpws/api/cities/2/index/stops/1:80011357,0,
80004270,04270,Larkin Sentral,Jalan Garuda- Malaysia Johor Bahru Johor Bahru,1.49487,103.74263,80004270,http://otp.transitos.io/otpws/api/cities/2/index/stops/1:80004270,0,
80012266,12266,Jejantas Datin Halimah,BA:Jejantas Datin Halimah,1.49607,103.73822,80012266,http://otp.transitos.io/otpws/api/cities/2/index/stops/1:80012266,0,
80008298,08298,Apartment Larkin Indah,Jalan Datin Halimah- Johor Jalan kasawari Johor,1.49804,103.73695,80008298,http://otp.transitos.io/otpws/api/cities/2/index/stops/1:80008298,0,
80003116,03116,Kolej Vokasional ERT Azizah,Jalan Datin Halimah- Johor Kampung Aman- Malaysia Johor- Malaysia,1.50188,103.7353,80003116,http://otp.transitos.io/otpws/api/cities/2/index/stops/1:80003116,0,
80008037,08037,Kondominium Datin Halimah,No results No results No results,1.50346,103.73481,80008037,http://otp.transitos.io/otpws/api/cities/2/index/stops/1:80008037,0,
80003115,03115,Pejabat Fama Negeri Johor,Jalan Datin Halimah- Johor Kampung Aman- Malaysia Johor- Malaysia,1.50582,103.73362,80003115,http://otp.transitos.io/otpws/api/cities/2/index/stops/1:80003115,0,
80012270,12270,BHP Tampoi,BA:BHP Tampoi,1.51107,103.73334,80012270,http://otp.transitos.io/otpws/api/cities/2/index/stops/1:80012270,0,
80012272,12272,Opp 23 Motorspot,BA:Opp 23 Motorspot,1.51228,103.73371,80012272,http://otp.transitos.io/otpws/api/cities/2/index/stops/1:80012272,0,
80012275,12275,Malaya Glass Factory,BA:Malaya Glass Factory,1.51364,103.73534,80012275,http://otp.transitos.io/otpws/api/cities/2/index/stops/1:80012275,0,
80005497,05497,CIDB Johor,Jalan Tampoi- Johor Kampung Majidee Baru- Malaysia Johor- Malaysia,1.51479,103.73728,80005497,http://otp.transitos.io/otpws/api/cities/2/index/stops/1:80005497,0,
80012277,12277,Opp Simpang 4 Kampung Ungku Mohsin,BA:Opp Simpang 4 Kampung Ungku Mohsin,1.51531,103.74072,80012277,http://otp.transitos.io/otpws/api/cities/2/index/stops/1:80012277,0,
80012279,12279,Opp Paragon Market Place,BA:Opp Paragon Market Place,1.516,103.74275,80012279,http://otp.transitos.io/otpws/api/cities/2/index/stops/1:80012279,0,
80007786,07786,Shell Taman Gembira,Jalan Tampoi- Johor Kampung Majidee Baru- Malaysia Johor- Malaysia,1.51809,103.74445,80007786,http://otp.transitos.io/otpws/api/cities/2/index/stops/1:80007786,0,
80012280,12280,Petron Taman Gembira,BA:Petron Taman Gembira,1.51955,103.74556,80012280,http://otp.transitos.io/otpws/api/cities/2/index/stops/1:80012280,0,
80012283,12283,F&N,BA:F&N,1.52076,103.74687,80012283,http://otp.transitos.io/otpws/api/cities/2/index/stops/1:80012283,0,
80012285,12285,Opp MSU Jalan Tampoi,BA:Opp MSU Jalan Tampoi,1.5209,103.75063,80012285,http://otp.transitos.io/otpws/api/cities/2/index/stops/1:80012285,0,
80007784,07784, Opp Jejantas Kampung Melayu,Jalan Tampoi- Johor Kampung Majidee Baru- Malaysia Johor- Malaysia,1.51862,103.75315,80007784,http://otp.transitos.io/otpws/api/cities/2/index/stops/1:80007784,0,
80007781,07781,Opp Jejantas Kampung Ubi,Jalan Tampoi- Johor Kampung Majidee Baru- Malaysia Johor- Malaysia,1.51839,103.75644,80007781,http://otp.transitos.io/otpws/api/cities/2/index/stops/1:80007781,0,
80012287,12287,Al Mizan,BA:Al Mizan,1.51877,103.75876,80012287,http://otp.transitos.io/otpws/api/cities/2/index/stops/1:80012287,0,
80003072,03072,Pasar Borong Pandan,Tebrau Highway- Johor Taman Sri Pandan- Malaysia Johor- Malaysia,1.52263,103.76554,80003072,http://otp.transitos.io/otpws/api/cities/2/index/stops/1:80003072,0,
80004191,04191,Petron Pandan,Tebrau Highway- Johor Taman Sri Pandan- Malaysia Johor- Malaysia,1.5249,103.77105,80004191,http://otp.transitos.io/otpws/api/cities/2/index/stops/1:80004191,0,
80003016,03016,Shell Pandan,Jalan Pandan- Johor Kawasan Industri Pandan- Malaysia Johor- Malaysia,1.52682,103.77553,80003016,http://otp.transitos.io/otpws/api/cities/2/index/stops/1:80003016,0,
80004189,04189,OPP The Store Pandan,Jalan Pandan- Johor Kawasan Industri Pandan- Malaysia Johor- Malaysia,1.53212,103.78216,80004189,http://otp.transitos.io/otpws/api/cities/2/index/stops/1:80004189,0,
80011088,11088,Smart Pandan,BA:Smart Pandan,1.5336,103.78338,80011088,http://otp.transitos.io/otpws/api/cities/2/index/stops/1:80011088,0,
80003172,03172,OPP Shell Bakawali,Jalan Pandan- Johor Kawasan Industri Pandan- Malaysia Johor- Malaysia,1.54323,103.79129,80003172,http://otp.transitos.io/otpws/api/cities/2/index/stops/1:80003172,0,
80012166,12166,Shell Tebrau,BA:Shell Tebrau,1.54705,103.7955,80012166,http://otp.transitos.io/otpws/api/cities/2/index/stops/1:80012166,0,
80004195,04195,AEON Tebrau Jalan Tebrau,Jalan Pandan- Johor Taman Desa Tebrau- Malaysia Johor- Malaysia,1.54878,103.79812,80004195,http://otp.transitos.io/otpws/api/cities/2/index/stops/1:80004195,0,
80008196,08196,IKEA Tebrau Jalan Tebrau,Jalan Kota Tinggi AEON Tebrau Johor,1.55211,103.80101,80008196,http://otp.transitos.io/otpws/api/cities/2/index/stops/1:80008196,0,
80003209,03209,OPP Taman Desa Jaya,Jalan Kota Tinggi- Johor Taman Desa Tebrau- Malaysia Johor- Malaysia,1.55742,103.8011,80003209,http://otp.transitos.io/otpws/api/cities/2/index/stops/1:80003209,0,
80003210,03210,OPP Taman Desa Cemerlang,Jalan Kota Tinggi- Johor Taman Desa Cemerlang- Malaysia Johor- Malaysia,1.56612,103.80811,80003210,http://otp.transitos.io/otpws/api/cities/2/index/stops/1:80003210,0,
80003211,03211,OPP Kuil Arulmigu Sri Muniswarar,Jalan Kota Tinggi- Johor Taman Puteri Wangsa- Malaysia Johor- Malaysia,1.56895,103.81229,80003211,http://otp.transitos.io/otpws/api/cities/2/index/stops/1:80003211,0,
80008923,08923,KFC Taman Puteri Wangsa,BA:KFC Taman Puteri Wangsa,1.57196,103.81358,80008923,http://otp.transitos.io/otpws/api/cities/2/index/stops/1:80008923,0,
80003213,03213,Taman Dato Chellam,Jalan Kota Tinggi- Johor Taman Zamrud- Malaysia Johor- Malaysia,1.57694,103.8179,80003213,http://otp.transitos.io/otpws/api/cities/2/index/stops/1:80003213,0,
80003214,03214,Taman Gunung Emas,Jalan Kota Tinggi- Johor Taman Zamrud- Malaysia Johor- Malaysia,1.58793,103.81809,80003214,http://otp.transitos.io/otpws/api/cities/2/index/stops/1:80003214,0,
80012180,12180,NSK Ulu Tiram,BA:NSK Ulu Tiram,1.59493,103.82056,80012180,http://otp.transitos.io/otpws/api/cities/2/index/stops/1:80012180,0,
80003186,03186,Perhentian Bas dan Kereta Sewa Ulu Tiram,Jalan Duku- Johor Taman Tiram Baru- Malaysia Johor- Malaysia,1.59808,103.82244,80003186,http://otp.transitos.io/otpws/api/cities/2/index/stops/1:80003186,0,
80007766,07766,Taman Tiram Jaya,Jalan Kota Tinggi- Johor Taman Tiram Jaya- Malaysia Johor- Malaysia,1.60307,103.82071,80007766,http://otp.transitos.io/otpws/api/cities/2/index/stops/1:80007766,0,
80007763,07763,Todays Mall,Jalan Kota Tinggi- Johor Taman Tiram Jaya- Malaysia Johor- Malaysia,1.60837,103.8218,80007763,http://otp.transitos.io/otpws/api/cities/2/index/stops/1:80007763,0,
80007757,07757,OPP Pulada,Jalan Jemaluang- Johor Ulu Tiram Johor- Malaysia,1.63064,103.82491,80007757,http://otp.transitos.io/otpws/api/cities/2/index/stops/1:80007757,0,
80012170,12170,TKPM Ulu Tiram,BA:TKPM Ulu Tiram,1.63439,103.829,80012170,http://otp.transitos.io/otpws/api/cities/2/index/stops/1:80012170,0,
80004491,04491,Opp Hentian Bas Taman Sri Saujana,Jalan Jemaluang- Johor Taman Saujana Johor- Malaysia,1.67211,103.85071,80004491,http://otp.transitos.io/otpws/api/cities/2/index/stops/1:80004491,0,
80010305,10305,Opp Petronas Taman Sri Saujana,BA:Opp Petronas Taman Sri Saujana,1.67563,103.85224,80010305,http://otp.transitos.io/otpws/api/cities/2/index/stops/1:80010305,0,
80003203,03203,Ladang Tai Tak,Jalan Jemaluang- Johor ulu tiram Johor- Malaysia,1.68594,103.86432,80003203,http://otp.transitos.io/otpws/api/cities/2/index/stops/1:80003203,0,
80004492,04492,Kuil Sri Maha Mariamman,Jalan Jemaluang- Johor Taman Sri Saujana Johor- Malaysia,1.69147,103.86961,80004492,http://otp.transitos.io/otpws/api/cities/2/index/stops/1:80004492,0,
80003204,03204,Kawasan Perindustrian Jalan Johor,Tebrau Highway- Malaysia ulu tiram Johor,1.70071,103.87949,80003204,http://otp.transitos.io/otpws/api/cities/2/index/stops/1:80003204,0,
80012172,12172,Pasar Borong Kota Tinggi,BA:Pasar Borong Kota Tinggi,1.70473,103.87907,80012172,http://otp.transitos.io/otpws/api/cities/2/index/stops/1:80012172,0,
80012174,12174,Gereja Bethany,BA:Gereja Bethany,1.71113,103.88055,80012174,http://otp.transitos.io/otpws/api/cities/2/index/stops/1:80012174,0,
80003205,03205,Taman Kota Intan,Jalan Kota Tinggi-Sungei Rengit- Johor ulu tiram Johor- Malaysia,1.71739,103.88422,80003205,http://otp.transitos.io/otpws/api/cities/2/index/stops/1:80003205,0,
80012176,12176,Taman Sri Lalang,BA:Taman Sri Lalang,1.71905,103.89008,80012176,http://otp.transitos.io/otpws/api/cities/2/index/stops/1:80012176,0,
80010303,10303,Opp Econsave Sri Lalang,BA:Opp Econsave Sri Lalang,1.71939,103.89344,80010303,http://otp.transitos.io/otpws/api/cities/2/index/stops/1:80010303,0,
80003206,03206,SMK Tun Habab,Tebrau Highway- Malaysia ulu tiram Johor,1.7217,103.89742,80003206,http://otp.transitos.io/otpws/api/cities/2/index/stops/1:80003206,0,
80010301,10301,Padang Awam MDKT,BA:Padang Awam MDKT,1.72427,103.89871,80010301,http://otp.transitos.io/otpws/api/cities/2/index/stops/1:80010301,0,
80012178,12178,Jalan Tun Sri Lanang,BA:Jalan Tun Sri Lanang,1.72956,103.90005,80012178,http://otp.transitos.io/otpws/api/cities/2/index/stops/1:80012178,0,
80003208,03208,Terminal Bas Kota Tinggi,Jalan Kota Tinggi-Sungei Rengit- Johor Kota Tinggi Johor- Malaysia,1.72902,103.90209,80003208,http://otp.transitos.io/otpws/api/cities/2/index/stops/1:80003208,0,
80012179,12179,Opp Jalan Tun Sri Lanang,BA:Opp Jalan Tun Sri Lanang,1.72947,103.90009,80012179,http://otp.transitos.io/otpws/api/cities/2/index/stops/1:80012179,0,
80008199,08199,OPP SMK Tun Habab,Jalan Johor Caltex Kota Tinggi Johor,1.72145,103.8972,80008199,http://otp.transitos.io/otpws/api/cities/2/index/stops/1:80008199,0,
80010302,10302,Econsave Sri Lalang,BA:Econsave Sri Lalang,1.71927,103.89346,80010302,http://otp.transitos.io/otpws/api/cities/2/index/stops/1:80010302,0,
80012177,12177,Opp Taman Sri Lalang,BA:Opp Taman Sri Lalang,1.71892,103.8901,80012177,http://otp.transitos.io/otpws/api/cities/2/index/stops/1:80012177,0,
80008200,08200,Opp Taman Kota Intan,Jalan Johor Taman Daiman Jaya Joho,1.71732,103.8844,80008200,http://otp.transitos.io/otpws/api/cities/2/index/stops/1:80008200,0,
80012175,12175,Opp Gereja Bethany,BA:Opp Gereja Bethany,1.71147,103.88072,80012175,http://otp.transitos.io/otpws/api/cities/2/index/stops/1:80012175,0,
80012173,12173,Opp Pasar Borong Kota Tinggi,BA:Opp Pasar Borong Kota Tinggi,1.7052,103.87919,80012173,http://otp.transitos.io/otpws/api/cities/2/index/stops/1:80012173,0,
80008198,08198,Opp Kawasan Perindustrian Jalan Johor,Jalan Johor Rem Estate johor,1.70023,103.87952,80008198,http://otp.transitos.io/otpws/api/cities/2/index/stops/1:80008198,0,
80012171,12171,Opp Kuil Sri Maha Mariamman,BA:Opp Kuil Sri Maha Mariamman,1.69173,103.8701,80012171,http://otp.transitos.io/otpws/api/cities/2/index/stops/1:80012171,0,
80007760,07760,OPP Ladang Tai Tak,Jalan Jemaluang- Johor Jemaluang- Johor Johor- Malaysia,1.686,103.86444,80007760,http://otp.transitos.io/otpws/api/cities/2/index/stops/1:80007760,0,
80010304,10304,Petronas Taman Sri Saujana,BA:Petronas Taman Sri Saujana,1.67567,103.85238,80010304,http://otp.transitos.io/otpws/api/cities/2/index/stops/1:80010304,0,
80003202,03202,Hentian Bas Taman Sri Saujana,Jemaluang- Johor ulu tiram Johor- Malaysia,1.67217,103.85088,80003202,http://otp.transitos.io/otpws/api/cities/2/index/stops/1:80003202,0,
80003201,03201,Opp TKPM Ulu Tiram,Jemaluang- Johor ulu tiram Johor- Malaysia,1.6341,103.82907,80003201,http://otp.transitos.io/otpws/api/cities/2/index/stops/1:80003201,0,
80007758,07758,Pulada,Jemaluang- Johor Ulu Tiram Johor- Malaysia,1.62952,103.82371,80007758,http://otp.transitos.io/otpws/api/cities/2/index/stops/1:80007758,0,
80007764,07764,OPP Todays Mall,Jalan Kota Tinggi- Johor Taman Tiram Jaya- Malaysia Johor- Malaysia,1.60695,103.82202,80007764,http://otp.transitos.io/otpws/api/cities/2/index/stops/1:80007764,0,
80007765,07765,opp Taman Tiram Jaya,Jalan Kota Tinggi- Johor Taman Tiram Jaya- Malaysia Johor- Malaysia,1.60291,103.82083,80007765,http://otp.transitos.io/otpws/api/cities/2/index/stops/1:80007765,0,
80003200,03200,Opp NSK Ulu Tiram,Jalan Kota Tinggi- Johor Taman Zamrud- Malaysia Johor- Malaysia,1.59334,103.82017,80003200,http://otp.transitos.io/otpws/api/cities/2/index/stops/1:80003200,0,
80003198,03198,Opp Taman Gunung Emas,Jalan Kota Tinggi- Johor Taman Zamrud- Malaysia Johor- Malaysia,1.58755,103.8181,80003198,http://otp.transitos.io/otpws/api/cities/2/index/stops/1:80003198,0,
80003197,03197,OPP Taman Dato Chellam,Jalan Kota Tinggi- Johor Taman Zamrud- Malaysia Johor- Malaysia,1.57587,103.81756,80003197,http://otp.transitos.io/otpws/api/cities/2/index/stops/1:80003197,0,
80012169,12169,Opp KFC Taman Puteri Wangsa,BA:Opp KFC Taman Puteri Wangsa,1.57183,103.81368,80012169,http://otp.transitos.io/otpws/api/cities/2/index/stops/1:80012169,0,
80008197,08197,Kuil Arulmigu Sri Muniswarar,Jalan Kota Tinggi Petronas Johor,1.56971,103.81274,80008197,http://otp.transitos.io/otpws/api/cities/2/index/stops/1:80008197,0,
80004196,04196,Taman Desa Cemerlang,Jalan Kota Tinggi- Johor Taman Desa Cemerlang- Malaysia Johor- Malaysia,1.56584,103.80837,80004196,http://otp.transitos.io/otpws/api/cities/2/index/stops/1:80004196,0,
80003193,03193,Taman Desa Jaya,Jalan Kota Tinggi- Johor Taman Desa Tebrau- Malaysia Johor- Malaysia,1.55817,103.80122,80003193,http://otp.transitos.io/otpws/api/cities/2/index/stops/1:80003193,0,
80003179,03179,Opp IKEA Tebrau Jalan Tebrau,Jalan Kota Tinggi- Johor Taman Desa Tebrau- Malaysia Johor- Malaysia,1.55247,103.80138,80003179,http://otp.transitos.io/otpws/api/cities/2/index/stops/1:80003179,0,
80003176,03176,OPP AEON Tebrau Jalan Tebrau,Jalan Pandan- Johor Taman Desa Tebrau- Malaysia Johor- Malaysia,1.54891,103.79877,80003176,http://otp.transitos.io/otpws/api/cities/2/index/stops/1:80003176,0,
80012167,12167,Opp Shell Tebrau,BA:Opp Shell Tebrau,1.54684,103.79545,80012167,http://otp.transitos.io/otpws/api/cities/2/index/stops/1:80012167,0,
80004193,04193,Shell Bakawali,Jalan Pandan- Johor Kawasan Industri Pandan- Malaysia Johor- Malaysia,1.54388,103.792,80004193,http://otp.transitos.io/otpws/api/cities/2/index/stops/1:80004193,0,
80008195,08195,Opp Smart Pandan,Jalan Pandan Pasaraya Smart Johor,1.53383,103.78399,80008195,http://otp.transitos.io/otpws/api/cities/2/index/stops/1:80008195,0,
80003173,03173,The Store Pandan,Jalan Pandan- Johor Kawasan Industri Pandan- Malaysia Johor- Malaysia,1.53165,103.782,80003173,http://otp.transitos.io/otpws/api/cities/2/index/stops/1:80003173,0,
80008194,08194,OPP Shell Pandan,Jalan Pandan Shell Pandan Johor,1.52639,103.77486,80008194,http://otp.transitos.io/otpws/api/cities/2/index/stops/1:80008194,0,
80003015,03015,OPP Petron Pandan,Jalan Pandan- Johor Taman Sri Pandan- Malaysia Johor- Malaysia,1.52486,103.77133,80003015,http://otp.transitos.io/otpws/api/cities/2/index/stops/1:80003015,0,
80003014,03014,OPP Pasar Borong Pandan,Jalan Pandan- Johor Taman Sri Pandan- Malaysia Johor- Malaysia,1.52257,103.7658,80003014,http://otp.transitos.io/otpws/api/cities/2/index/stops/1:80003014,0,
80012286,12286,Opp Al Mizan,BA:Opp Al Mizan,1.5198,103.76002,80012286,http://otp.transitos.io/otpws/api/cities/2/index/stops/1:80012286,0,
80007782,07782,Jejantas Kampung Ubi,Jalan Tampoi- Johor Kampung Majidee Baru- Malaysia Johor- Malaysia,1.51829,103.75546,80007782,http://otp.transitos.io/otpws/api/cities/2/index/stops/1:80007782,0,
80007783,07783,Jenjantas Kampug Melayu,Jalan Tampoi- Johor Kampung Majidee Baru- Malaysia Johor- Malaysia,1.5185,103.75312,80007783,http://otp.transitos.io/otpws/api/cities/2/index/stops/1:80007783,0,
80012284,12284,MSU Jalan Tampoi,BA:MSU Jalan Tampoi,1.5208,103.75059,80012284,http://otp.transitos.io/otpws/api/cities/2/index/stops/1:80012284,0,
80012282,12282,Opp F&N,BA:Opp F&N,1.52065,103.74692,80012282,http://otp.transitos.io/otpws/api/cities/2/index/stops/1:80012282,0,
80012281,12281,Opp Petron Taman Gembira,BA:Opp Petron Taman Gembira,1.51938,103.74577,80012281,http://otp.transitos.io/otpws/api/cities/2/index/stops/1:80012281,0,
80007787,07787,Opp Shell Taman Gembira,Jalan Tampoi- Johor Kampung Majidee Baru- Malaysia Johor- Malaysia,1.51802,103.74456,80007787,http://otp.transitos.io/otpws/api/cities/2/index/stops/1:80007787,0,
80012278,12278,Paragon Market Place,BA:Paragon Market Place,1.51594,103.74284,80012278,http://otp.transitos.io/otpws/api/cities/2/index/stops/1:80012278,0,
80005498,05498,Opp CIDB Johor,Jalan Tampoi- Johor Kampung Majidee Baru- Malaysia Johor- Malaysia,1.51457,103.73727,80005498,http://otp.transitos.io/otpws/api/cities/2/index/stops/1:80005498,0,
80012274,12274,Opp Malaya Glass Factory,BA:Opp Malaya Glass Factory,1.51365,103.73552,80012274,http://otp.transitos.io/otpws/api/cities/2/index/stops/1:80012274,0,
80012273,12273,23 Motorspot,BA:23 Motorspot,1.51219,103.73375,80012273,http://otp.transitos.io/otpws/api/cities/2/index/stops/1:80012273,0,
80012271,12271,Opp BHP Tampoi,BA:Opp BHP Tampoi,1.51121,103.73359,80012271,http://otp.transitos.io/otpws/api/cities/2/index/stops/1:80012271,0,
80012269,12269,Opp Pejabat Fama Negeri Johor,BA:Opp Pejabat Fama Negeri Johor,1.50616,103.73375,80012269,http://otp.transitos.io/otpws/api/cities/2/index/stops/1:80012269,0,
80008192,08192,OPP Kondo Datin Halimah,Jalan Datin Halimah- Johor Percetakan Nasional Malaysia Berhad Johor,1.50409,103.73447,80008192,http://otp.transitos.io/otpws/api/cities/2/index/stops/1:80008192,0,
80012268,12268,Opp Kolej Vokasional ERT Azizah,BA:Opp Kolej Vokasional ERT Azizah,1.50235,103.73544,80012268,http://otp.transitos.io/otpws/api/cities/2/index/stops/1:80012268,0,
80003118,03118,Opp Apartment Larkin Indah ,Jalan Datin Halimah- Johor Kampung Aman- Malaysia Johor- Malaysia,1.49802,103.73717,80003118,http://otp.transitos.io/otpws/api/cities/2/index/stops/1:80003118,0,
80012267,12267,Opp Jejantas Datin Halimah,BA:Opp Jejantas Datin Halimah,1.49608,103.73834,80012267,http://otp.transitos.io/otpws/api/cities/2/index/stops/1:80012267,0,
80008602,08602,DEWAN JKR JOHOR BAHRU,BA:DEWAN JKR JOHOR BAHRU,1.491747,103.740822,80008602,http://otp.transitos.io/otpws/api/cities/2/index/stops/1:80008602,0,
80012164,12164,Hospital Pakar Puteri,BA:Hospital Pakar Puteri,1.49009,103.74182,80012164,http://otp.transitos.io/otpws/api/cities/2/index/stops/1:80012164,0,
80012163,12163,Perkeso Johor Bahru,BA:Perkeso Johor Bahru,1.48747,103.74528,80012163,http://otp.transitos.io/otpws/api/cities/2/index/stops/1:80012163,0,
80012160,12160,Menara Kastam Johor Bahru,BA:Menara Kastam Johor Bahru,1.48678,103.74641,80012160,http://otp.transitos.io/otpws/api/cities/2/index/stops/1:80012160,0,
80008564,08564,Bomba Jalan Tun Abdul Razak,BA:Bomba Jalan Tun Abdul Razak,1.48514,103.75016,80008564,http://otp.transitos.io/otpws/api/cities/2/index/stops/1:80008564,0,
80004256,04256,Opp Jalan Tun Abdul Razak,Jalan Tun Abdul Razak- Johor Kampung Ngee Heng- Malaysia Johor- Malaysia,1.48034,103.75299,80004256,http://otp.transitos.io/otpws/api/cities/2/index/stops/1:80004256,0,
80003049,03049,OPP Plaza Pelangi,Jalan Rusa- Malaysia Kampung Wadi Hana- Malaysia Johor- Malaysia,1.4805,103.76435,80003049,http://otp.transitos.io/otpws/api/cities/2/index/stops/1:80003049,0,
80003051,03051,Crystal Crown,Jalan Harimau Tarom- Malaysia Kampung Wadi Hana- Malaysia Johor- Malaysia,1.48652,103.76603,80003051,http://otp.transitos.io/otpws/api/cities/2/index/stops/1:80003051,0,
80003054,03054,Caltex Taman Melodies,Tebrau Highway- Johor Kampung Setanggi- Malaysia Johor- Malaysia,1.49052,103.76696,80003054,http://otp.transitos.io/otpws/api/cities/2/index/stops/1:80003054,0,
80003056,03056,OPP Taman Sentosa,Tebrau Highway- Johor Kampung Setanggi- Malaysia Johor- Malaysia,1.49345,103.76645,80003056,http://otp.transitos.io/otpws/api/cities/2/index/stops/1:80003056,0,
80003059,03059,OPP Hospital Columbia ,Tebrau Highway- Johor Kampung Setanggi- Malaysia Johor- Malaysia,1.50051,103.76503,80003059,http://otp.transitos.io/otpws/api/cities/2/index/stops/1:80003059,0,
80003061,03061,OPP Mutiara Motors,Tebrau Highway- Johor Kampung Dato Sulaiman Menteri- Malaysia Johor- Malaysia,1.50383,103.76416,80003061,http://otp.transitos.io/otpws/api/cities/2/index/stops/1:80003061,0,
80003064,03064,Restoran Aliff,Tebrau Highway- Johor Kampung Setanggi- Malaysia Johor- Malaysia,1.50571,103.76267,80003064,http://otp.transitos.io/otpws/api/cities/2/index/stops/1:80003064,0,
80003067,03067,KG Melayu Majidee,Tebrau Highway- Johor Kampung Setanggi- Malaysia Johor- Malaysia,1.50975,103.76089,80003067,http://otp.transitos.io/otpws/api/cities/2/index/stops/1:80003067,0,
80003069,03069,Majidee,Tebrau Highway- Johor Kampung Setanggi- Malaysia Johor- Malaysia,1.51431,103.75807,80003069,http://otp.transitos.io/otpws/api/cities/2/index/stops/1:80003069,0,
80003085,03085,Restoran Pokok Ceri,Jalan Kangkar Tebrau- Johor Taman Istimewa- Malaysia Johor- Malaysia,1.53266,103.76376,80003085,http://otp.transitos.io/otpws/api/cities/2/index/stops/1:80003085,0,
80008836,08836,Opp Universal Cable,BA:Opp Universal Cable,1.53553,103.75949,80008836,http://otp.transitos.io/otpws/api/cities/2/index/stops/1:80008836,0,
80011289,11289,Masjid Kampung Kangkar Tebrau,BA:Masjid Kampung Kangkar Tebrau,1.53383,103.75577,80011289,http://otp.transitos.io/otpws/api/cities/2/index/stops/1:80011289,0,
80003005,03005,Bus Stop SK Kangkar Tebrau,Jalan Kangkar Tebrau- Johor Kampung Ulu Pandan- Malaysia Johor- Malaysia,1.53313,103.75485,80003005,http://otp.transitos.io/otpws/api/cities/2/index/stops/1:80003005,0,
80003006,03006,U turn Kangkar tebrau,Jalan Firma 2- Johor Taman Bukit Mutiara- Malaysia Johor- Malaysia,1.53137,103.7523,80003006,http://otp.transitos.io/otpws/api/cities/2/index/stops/1:80003006,0,
80013286,13286,JCY Jalan Firma 3,BA:JCY Jalan Firma 3,1.53296,103.75137,80013286,http://otp.transitos.io/otpws/api/cities/2/index/stops/1:80013286,0,
80013285,13285,Hostel Jalan Firma 3,BA:Hostel Jalan Firma 3,1.53535,103.7529,80013285,http://otp.transitos.io/otpws/api/cities/2/index/stops/1:80013285,0,
80013284,13284,Kilang Bika,BA:Kilang Bika,1.53622,103.75155,80013284,http://otp.transitos.io/otpws/api/cities/2/index/stops/1:80013284,0,
80013283,13283,Simpang Jalan Firma 3/1,BA:Simpang Jalan Firma 3/1,1.53424,103.74937,80013283,http://otp.transitos.io/otpws/api/cities/2/index/stops/1:80013283,0,
80008616,08616,MASJID KAMPUNG KANGKAR TEBRAU/SK KANGKAR,BA:MASJID KAMPUNG KANGKAR TEBRAU/SK KANGKAR,1.53372,103.75552,80008616,http://otp.transitos.io/otpws/api/cities/2/index/stops/1:80008616,0,
80003007,03007,Bus Stop Universal Cable,Jalan Daya- Malaysia Taman Delima- Malaysia Johor- Malaysia,1.53558,103.75965,80003007,http://otp.transitos.io/otpws/api/cities/2/index/stops/1:80003007,0,
80011290,11290,Opp Taman Delima,BA:Opp Taman Delima,1.53648,103.76272,80011290,http://otp.transitos.io/otpws/api/cities/2/index/stops/1:80011290,0,
80008617,08617,Flat Jalan Bertam 1,BA:Flat Jalan Bertam 1,1.53816,103.763,80008617,http://otp.transitos.io/otpws/api/cities/2/index/stops/1:80008617,0,
80002997,02997,Bus Stop Opp Shell Jalan Daya,Jalan Daya- Johor Taman Delima- Malaysia Johor- Malaysia,1.54654,103.76079,80002997,http://otp.transitos.io/otpws/api/cities/2/index/stops/1:80002997,0,
80011291,11291,Taman Daya,BA:Taman Daya,1.54698,103.75797,80011291,http://otp.transitos.io/otpws/api/cities/2/index/stops/1:80011291,0,
80002996,02996,Flat Jalan Nipah 11,Jalan Daya 2- Johor Taman Delima Indah- Malaysia Johor- Malaysia,1.54623,103.75707,80002996,http://otp.transitos.io/otpws/api/cities/2/index/stops/1:80002996,0,
80011292,11292,Jalan Rumbia 39 1,BA:Jalan Rumbia 39 1,1.54638,103.75572,80011292,http://otp.transitos.io/otpws/api/cities/2/index/stops/1:80011292,0,
80002995,02995,Jalan Rumbia 39 2,Jalan Rumbia 39- Johor Taman Delima Indah- Malaysia Johor- Malaysia,1.54858,103.75494,80002995,http://otp.transitos.io/otpws/api/cities/2/index/stops/1:80002995,0,
80002986,02986,SMK Taman Daya,Jalan Rumbia 39- Johor Taman Daya- Malaysia Johor- Malaysia,1.55249962420733,103.75425904,80002986,http://otp.transitos.io/otpws/api/cities/2/index/stops/1:80002986,0,
80010038,10038,Sekolah Agama Taman Daya,BA:Sekolah Agama Taman Daya,1.55426886334,103.754164686,80010038,http://otp.transitos.io/otpws/api/cities/2/index/stops/1:80010038,0,
80011334,11334,99 SPEEDMART JALAN NIBONG,BA:99 SPEEDMART JALAN NIBONG,1.55492,103.75588,80011334,http://otp.transitos.io/otpws/api/cities/2/index/stops/1:80011334,0,
80002999,02999,Bus Stop TM Auto Tyre,Jalan Daya- Johor Taman Daya- Malaysia Johor- Malaysia,1.55524,103.75822,80002999,http://otp.transitos.io/otpws/api/cities/2/index/stops/1:80002999,0,
80011293,11293,Opp Tadika Mutiara Taman Daya,BA:Opp Tadika Mutiara Taman Daya,1.55827,103.75814,80011293,http://otp.transitos.io/otpws/api/cities/2/index/stops/1:80011293,0,
80011296,11296,Opp Hankook Tyre,BA:Opp Hankook Tyre,1.55907,103.75816,80011296,http://otp.transitos.io/otpws/api/cities/2/index/stops/1:80011296,0,
80008620,08620,Opp Petron Jalan Daya,BA:Opp Petron Jalan Daya,1.56122,103.7583,80008620,http://otp.transitos.io/otpws/api/cities/2/index/stops/1:80008620,0,
80010079,10079,TD Point,BA:TD Point,1.56660507485,103.75894841,80010079,http://otp.transitos.io/otpws/api/cities/2/index/stops/1:80010079,0,
80011295,11295,Taman Setia Indah,BA:Taman Setia Indah,1.56891,103.75934,80011295,http://otp.transitos.io/otpws/api/cities/2/index/stops/1:80011295,0,
80008535,08535,Jalan Setia 1 Opp Setia Park,BA:Jalan Setia 1 Opp Setia Park,1.56961,103.75623,80008535,http://otp.transitos.io/otpws/api/cities/2/index/stops/1:80008535,0,
80010072,10072,PPR Setia Indah,BA:PPR Setia Indah,1.57011,103.75416,80010072,http://otp.transitos.io/otpws/api/cities/2/index/stops/1:80010072,0,
80010015,10015,Tadika Setia indah,BA:Tadika Setia indah,1.57255,103.75127,80010015,http://otp.transitos.io/otpws/api/cities/2/index/stops/1:80010015,0,
80013288,13288,Simpang Jalan Setia 4/12,BA:Simpang Jalan Setia 4/12,1.57444,103.74918,80013288,http://otp.transitos.io/otpws/api/cities/2/index/stops/1:80013288,0,
80013287,13287,Taman Seri Austin,BA:Taman Seri Austin,1.5769,103.74831,80013287,http://otp.transitos.io/otpws/api/cities/2/index/stops/1:80013287,0,
80013289,13289,Macdonalds Seri Austin,BA:Macdonalds Seri Austin,1.57833,103.75057,80013289,http://otp.transitos.io/otpws/api/cities/2/index/stops/1:80013289,0,
80013291,13291,Opp Jalan Setia 3/12,BA:Opp Jalan Setia 3/12,1.57647,103.75917,80013291,http://otp.transitos.io/otpws/api/cities/2/index/stops/1:80013291,0,
80002961,02961,Hentian Setia Indah,Jalan Daya  Jalan Setia 2 Johor- Malaysia,1.57332,103.75941,80002961,http://otp.transitos.io/otpws/api/cities/2/index/stops/1:80002961,0,
80011297,11297,Opp Taman Setia Indah,BA:Opp Taman Setia Indah,1.5688,103.7594,80011297,http://otp.transitos.io/otpws/api/cities/2/index/stops/1:80011297,0,
80010078,10078,Bus Stop Opp TD Point,BA:Bus Stop Opp TD Point,1.56645,103.75927,80010078,http://otp.transitos.io/otpws/api/cities/2/index/stops/1:80010078,0,
80002984,02984,Bus Stop Petron Jalan Daya,Jalan Daya- Johor Taman Daya- Malaysia Johor- Malaysia,1.56133,103.75843,80002984,http://otp.transitos.io/otpws/api/cities/2/index/stops/1:80002984,0,
80003000,03000,Hankook Tyre,Jalan Daya- Johor Taman Daya- Malaysia Johor- Malaysia,1.55911,103.75829,80003000,http://otp.transitos.io/otpws/api/cities/2/index/stops/1:80003000,0,
80011294,11294,Tadika Mutiara Taman Daya,BA:Tadika Mutiara Taman Daya,1.55832,103.75825,80011294,http://otp.transitos.io/otpws/api/cities/2/index/stops/1:80011294,0,
80011274,11274,Opp TM Auto Tyre,BA:Opp TM Auto Tyre,1.55529,103.75833,80011274,http://otp.transitos.io/otpws/api/cities/2/index/stops/1:80011274,0,
80003001,03001,Opp Gerai Muafakat Johor,Jalan Daya- Johor Taman Daya- Malaysia Johor- Malaysia,1.55014,103.75864,80003001,http://otp.transitos.io/otpws/api/cities/2/index/stops/1:80003001,0,
80003003,03003,Bus Stop TNB Taman Daya,Jalan Daya- Malaysia Taman Delima- Malaysia Johor- Malaysia,1.53845,103.76317,80003003,http://otp.transitos.io/otpws/api/cities/2/index/stops/1:80003003,0,
80003004,03004,Taman Delima,Jalan Daya- Malaysia Taman Delima- Malaysia Johor- Malaysia,1.53661,103.76285,80003004,http://otp.transitos.io/otpws/api/cities/2/index/stops/1:80003004,0,
80003084,03084,Surau Hajjah Fatimah,Jalan Kangkar Tebrau- Johor Taman Istimewa- Malaysia Johor- Malaysia,1.53099,103.76613,80003084,http://otp.transitos.io/otpws/api/cities/2/index/stops/1:80003084,0,
80003082,03082,Poliklinik Penawar Taman Istimewa,Jalan Kangkar Tebrau- Johor Taman Istimewa- Malaysia Johor- Malaysia,1.52963,103.76809,80003082,http://otp.transitos.io/otpws/api/cities/2/index/stops/1:80003082,0,
80003021,03021,OPP Majidee,Tebrau Highway- Johor Kampung Setanggi- Malaysia Johor- Malaysia,1.51474,103.75813,80003021,http://otp.transitos.io/otpws/api/cities/2/index/stops/1:80003021,0,
80003022,03022,OPP KG Melayu Majidee,Tebrau Highway- Johor Kampung Setanggi- Malaysia Johor- Malaysia,1.50984,103.7611,80003022,http://otp.transitos.io/otpws/api/cities/2/index/stops/1:80003022,0,
80003024,03024,OPP Restoran Aliff,Tebrau Highway- Johor Kampung Setanggi- Malaysia Johor- Malaysia,1.50609,103.76255,80003024,http://otp.transitos.io/otpws/api/cities/2/index/stops/1:80003024,0,
80003027,03027,Mutiara Motors,Tebrau Highway- Johor Kampung Setanggi- Malaysia Johor- Malaysia,1.50372,103.76451,80003027,http://otp.transitos.io/otpws/api/cities/2/index/stops/1:80003027,0,
80003030,03030,Hospital Columbia ,Tebrau Highway- Johor Kampung Setanggi- Malaysia Johor- Malaysia,1.50113,103.76521,80003030,http://otp.transitos.io/otpws/api/cities/2/index/stops/1:80003030,0,
80003032,03032,Taman Sentosa,Jalan Sutera 1- Malaysia Jalan Kebun Teh Johor- Malaysia,1.49432,103.76647,80003032,http://otp.transitos.io/otpws/api/cities/2/index/stops/1:80003032,0,
80003035,03035,OPP Caltex Taman Melodies,Jalan Sulam- Johor Taman Sentosa- Malaysia Johor- Malaysia,1.49166,103.76699,80003035,http://otp.transitos.io/otpws/api/cities/2/index/stops/1:80003035,0,
80003040,03040,OPP Crystal Crown,Tebrau Highway- Johor Kampung Setanggi- Malaysia Johor- Malaysia,1.48677,103.76628,80003040,http://otp.transitos.io/otpws/api/cities/2/index/stops/1:80003040,0,
80004183,04183,Plaza Pelangi,Tebrau Highway- Johor Century Garden- Malaysia Johor- Malaysia,1.48106,103.76468,80004183,http://otp.transitos.io/otpws/api/cities/2/index/stops/1:80004183,0,
80003042,03042,IPK Johor,Jalan Dato Abdullah Tahir- Johor Century Garden- Malaysia Johor- Malaysia,1.47738,103.7637,80003042,http://otp.transitos.io/otpws/api/cities/2/index/stops/1:80003042,0,
80013290,13290,Opp Wisma Peladang,BA:Opp Wisma Peladang,1.45652,103.76484,80013290,http://otp.transitos.io/otpws/api/cities/2/index/stops/1:80013290,0,
80013292,13292,Opp Danga City Mall,BA:Opp Danga City Mall,1.47579,103.75417,80013292,http://otp.transitos.io/otpws/api/cities/2/index/stops/1:80013292,0,
80013293,13293,Bank Muamalat Kebun Teh,BA:Bank Muamalat Kebun Teh,1.4847,103.75279,80013293,http://otp.transitos.io/otpws/api/cities/2/index/stops/1:80013293,0,
80007615,07615,Impian Business Park,Jalan Serantau- Johor Taman Dato Onn- Malaysia Johor- Malaysia,1.48729,103.75137,80007615,http://otp.transitos.io/otpws/api/cities/2/index/stops/1:80007615,0,
80011773,11773,Kacang Pool Hj,BA:Kacang Pool Hj,1.49054,103.75143,80011773,http://otp.transitos.io/otpws/api/cities/2/index/stops/1:80011773,0,
80007617,07617,SJK (C) Foon Yew 3,Sekolah Jenis Kebangsaan (Cina Foon Yew 3- Johor Kampung Kebun Teh- Malaysia Johor- Malaysia,1.49207,103.75142,80007617,http://otp.transitos.io/otpws/api/cities/2/index/stops/1:80007617,0,
80011774,11774,Taman Dato Onn,BA:Taman Dato Onn,1.49341,103.75142,80011774,http://otp.transitos.io/otpws/api/cities/2/index/stops/1:80011774,0,
80007619,07619,Opp Stadium Larkin,Jalan Dato Jaafar- Johor Kampung Kebun Teh- Malaysia Johor- Malaysia,1.49565,103.75094,80007619,http://otp.transitos.io/otpws/api/cities/2/index/stops/1:80007619,0,
80011775,11775,Sekolah Agama Dato Onn,BA:Sekolah Agama Dato Onn,1.49795,103.74806,80011775,http://otp.transitos.io/otpws/api/cities/2/index/stops/1:80011775,0,
80011776,11776,Ranhill SAJ Sdn Bhd,BA:Ranhill SAJ Sdn Bhd,1.49713,103.74549,80011776,http://otp.transitos.io/otpws/api/cities/2/index/stops/1:80011776,0,
80007620,07620,Stadium Larkin,Jalan Dato Jaafar- Johor Kampung Kebun Teh- Malaysia Johor- Malaysia,1.49654,103.75074,80007620,http://otp.transitos.io/otpws/api/cities/2/index/stops/1:80007620,0,
80002924,02924,AEON Tebrau / Opp IKEA,Tebrau Highway- Johor Taman Desa Tebrau- Malaysia Johor- Malaysia,1.5517,103.79659,80002924,http://otp.transitos.io/otpws/api/cities/2/index/stops/1:80002924,0,
80013294,13294,Toppen Jalan Tebrau,BA:Toppen Jalan Tebrau,1.55165,103.79776,80013294,http://otp.transitos.io/otpws/api/cities/2/index/stops/1:80013294,0,
80008460,08460,Opp AEON Tebrau/ IKEA,Persiaran Bandar Desa Tebrau Persiaran Bandar Desa Tebrau Johor,1.55165,103.79695,80008460,http://otp.transitos.io/otpws/api/cities/2/index/stops/1:80008460,0,
80008573,08573,Opp Desa Perwira,BA:Opp Desa Perwira,1.53525,103.78947,80008573,http://otp.transitos.io/otpws/api/cities/2/index/stops/1:80008573,0,
80007709,07709,Opp Taman Molek,Jalan Ros Merah 2/6- Johor Kawasan Industri Pandan- Malaysia Johor- Malaysia,1.53273,103.7921,80007709,http://otp.transitos.io/otpws/api/cities/2/index/stops/1:80007709,0,
80007707,07707,Balai Polis Johor Jaya,Jalan Ros Merah 4/13- Johor Kawasan Industri Pandan- Malaysia Johor- Malaysia,1.5298,103.79458,80007707,http://otp.transitos.io/otpws/api/cities/2/index/stops/1:80007707,0,
80008609,08609,Opp Tangki Air Tmn Molek,BA:Opp Tangki Air Tmn Molek,1.52844,103.79586,80008609,http://otp.transitos.io/otpws/api/cities/2/index/stops/1:80008609,0,
80011497,11497,TAMAN ROSMERAH,BA:TAMAN ROSMERAH,1.5270125301749276,103.79859711640934,80011497,http://otp.transitos.io/otpws/api/cities/2/index/stops/1:80011497,0,
80007699,07699,Opp Restoran Pekin Johor Jaya,Jalan Rosemerah 8/1- Johor Taman Perindustrian Plentong- Malaysia Johor- Malaysia,1.52427,103.80767,80007699,http://otp.transitos.io/otpws/api/cities/2/index/stops/1:80007699,0,
80007696,07696,Prima Regency 1,Jalan Masai Lama- Johor Taman Perindustrian Plentong- Malaysia Johor- Malaysia,1.52357,103.81146,80007696,http://otp.transitos.io/otpws/api/cities/2/index/stops/1:80007696,0,
80008436,08436,Opp Prima Regency 2,Jalan Masai Lama Jalan Masai Lama Johor,1.52327,103.81269,80008436,http://otp.transitos.io/otpws/api/cities/2/index/stops/1:80008436,0,
80003078,03078,Kia Motors Plentong,Jalan Masai Lama- Johor Taman Perindustrian Plentong- Malaysia Johor- Malaysia,1.52596,103.817,80003078,http://otp.transitos.io/otpws/api/cities/2/index/stops/1:80003078,0,
80011159,11159,Taman Bunga Ros,BA:Taman Bunga Ros,1.52119,103.82066,80011159,http://otp.transitos.io/otpws/api/cities/2/index/stops/1:80011159,0,
80003031,03031,Taman Ria Plentong,Jalan Masai Lama- Johor Taman Bukit Rinting- Malaysia Johor- Malaysia,1.52035,103.82453,80003031,http://otp.transitos.io/otpws/api/cities/2/index/stops/1:80003031,0,
80003029,03029,Sri Plentong,Jalan Masai Lama- Johor Taman Bukit Rinting- Malaysia Johor- Malaysia,1.51908,103.82585,80003029,http://otp.transitos.io/otpws/api/cities/2/index/stops/1:80003029,0,
80003028,03028,Jalan Masai Lama 2,Jalan Masai Lama- Johor Taman Bukit Rinting- Malaysia Johor- Malaysia,1.51079,103.83374,80003028,http://otp.transitos.io/otpws/api/cities/2/index/stops/1:80003028,0,
80011521,11521,Opp Petron Pasir Gudang East,BA:Opp Petron Pasir Gudang East,1.50328747466317,103.853511051888,80011521,http://otp.transitos.io/otpws/api/cities/2/index/stops/1:80011521,0,
80003023,03023,JALAN BAYU,Jalan Masai Lama- Johor Taman Bukit Rinting- Malaysia Johor- Malaysia,1.50138,103.85679,80003023,http://otp.transitos.io/otpws/api/cities/2/index/stops/1:80003023,0,
80003018,03018,Jalan Bayu 11 (Caltex ),Jalan Masai Lama- Johor Taman Bukit Rinting- Malaysia Johor- Malaysia,1.4998,103.86314,80003018,http://otp.transitos.io/otpws/api/cities/2/index/stops/1:80003018,0,
80002885,02885,Todays Market (Jalan Masai Lama),Jalan Masai Lama- Johor Taman Bukit Rinting- Malaysia Johor- Malaysia,1.49345,103.87231,80002885,http://otp.transitos.io/otpws/api/cities/2/index/stops/1:80002885,0,
80011152,11152,Opp KipMall Masai,BA:Opp KipMall Masai,1.48148,103.89174,80011152,http://otp.transitos.io/otpws/api/cities/2/index/stops/1:80011152,0,
80011500,11500,OPP KPJ Pasir Gudang,BA:OPP KPJ Pasir Gudang,1.47808,103.89549,80011500,http://otp.transitos.io/otpws/api/cities/2/index/stops/1:80011500,0,
80011518,11518,Opp Sekolah Islam Ah Tahfiz Taman Mawar,BA:Opp Sekolah Islam Ah Tahfiz Taman Mawar,1.46823441552008,103.898782424642,80011518,http://otp.transitos.io/otpws/api/cities/2/index/stops/1:80011518,0,
80008418,08418,Terminal Bas Pasir Gudang,Jalan Mawar Biru Kompleks Pusat Johor,1.46583,103.90133,80008418,http://otp.transitos.io/otpws/api/cities/2/index/stops/1:80008418,0,
80004387,04387,Opp SMK Pasir Gudang,Jalan Pusat Bandar- Johor Taman Masai- Malaysia Johor- Malaysia,1.47041,103.90556,80004387,http://otp.transitos.io/otpws/api/cities/2/index/stops/1:80004387,0,
80011501,11501,KPJ Pasir Gudang,BA:KPJ Pasir Gudang,1.478150071894286,103.89524283712439,80011501,http://otp.transitos.io/otpws/api/cities/2/index/stops/1:80011501,0,
80011514,11514,KipMall Masai,BA:KipMall Masai,1.48153,103.89167,80011514,http://otp.transitos.io/otpws/api/cities/2/index/stops/1:80011514,0,
80008556,08556,Opp Terminal Bas Masai,BA:Opp Terminal Bas Masai,1.48639,103.88546,80008556,http://otp.transitos.io/otpws/api/cities/2/index/stops/1:80008556,0,
80002874,02874,Opp SMK Dato Penggawa Timur,Jalan Meranti- Johor Taman Rinting- Malaysia Johor- Malaysia,1.49245,103.87819,80002874,http://otp.transitos.io/otpws/api/cities/2/index/stops/1:80002874,0,
80008551,08551,Opp Maybank Bandar Seri Alam,BA:Opp Maybank Bandar Seri Alam,1.493078,103.874256,80008551,http://otp.transitos.io/otpws/api/cities/2/index/stops/1:80008551,0,
80008572,08572,Opp Todays Market (Jalan Masai Lama),BA:Opp Todays Market (Jalan Masai Lama),1.49342,103.87228,80008572,http://otp.transitos.io/otpws/api/cities/2/index/stops/1:80008572,0,
80011519,11519,Opp Jalan Bayu 11 (Caltex),BA:Opp Jalan Bayu 11 (Caltex),1.49964132979013,103.863302917783,80011519,http://otp.transitos.io/otpws/api/cities/2/index/stops/1:80011519,0,
80003026,03026,Petron Pasir Gudang East,Jalan Masai Lama- Johor Taman Bukit Rinting- Malaysia Johor- Malaysia,1.50338,103.85309,80003026,http://otp.transitos.io/otpws/api/cities/2/index/stops/1:80003026,0,
80011151,11151,Jalan Masai Lama 1,BA:Jalan Masai Lama 1,1.51627,103.82765,80011151,http://otp.transitos.io/otpws/api/cities/2/index/stops/1:80011151,0,
80011517,11517,Opp Sri Plentong,BA:Opp Sri Plentong,1.51938133843487,103.825353217762,80011517,http://otp.transitos.io/otpws/api/cities/2/index/stops/1:80011517,0,
80011520,11520,Opp Taman Ria Plentong,BA:Opp Taman Ria Plentong,1.52042,103.82433,80011520,http://otp.transitos.io/otpws/api/cities/2/index/stops/1:80011520,0,
80003076,03076,Opp Taman Bunga Ros,Jalan Masai Lama- Johor Taman Bukit Rinting- Malaysia Johor- Malaysia,1.52122,103.82044,80003076,http://otp.transitos.io/otpws/api/cities/2/index/stops/1:80003076,0,
80011158,11158,OPP Kia Motors Plentong,BA:OPP Kia Motors Plentong,1.52614,103.81684,80011158,http://otp.transitos.io/otpws/api/cities/2/index/stops/1:80011158,0,
80008435,08435,Prima Regency 2,Jalan Masai Lama Jalan Masai Lama Johor,1.52325,103.81282,80008435,http://otp.transitos.io/otpws/api/cities/2/index/stops/1:80008435,0,
80007697,07697,OPP Prima Regency 1,Jalan Masai Lama- Johor Taman Perindustrian Plentong- Malaysia Johor- Malaysia,1.52343,103.81139,80007697,http://otp.transitos.io/otpws/api/cities/2/index/stops/1:80007697,0,
80007700,07700,Restoran Pekin Johor Jaya,Jalan Rosemerah 8/1- Johor Taman Perindustrian Plentong- Malaysia Johor- Malaysia,1.52418,103.80761,80007700,http://otp.transitos.io/otpws/api/cities/2/index/stops/1:80007700,0,
80008612,08612,Warung Abadi,BA:Warung Abadi,1.52543,103.80451,80008612,http://otp.transitos.io/otpws/api/cities/2/index/stops/1:80008612,0,
80008610,08610,ROSMERAH 9 ,BA:ROSMERAH 9 ,1.526422,103.800695,80008610,http://otp.transitos.io/otpws/api/cities/2/index/stops/1:80008610,0,
80011124,11124,Opp Taman Rosmerah,BA:Opp Taman Rosmerah,1.526865,103.798388,80011124,http://otp.transitos.io/otpws/api/cities/2/index/stops/1:80011124,0,
80008608,08608,Tangki Air Taman Molek,BA:Tangki Air Taman Molek,1.52799,103.79592,80008608,http://otp.transitos.io/otpws/api/cities/2/index/stops/1:80008608,0,
80007705,07705,Opp Balai Polis Johor Jaya,Jalan Ros Merah 4/13- Johor Kawasan Industri Pandan- Malaysia Johor- Malaysia,1.52979,103.79442,80007705,http://otp.transitos.io/otpws/api/cities/2/index/stops/1:80007705,0,
80007708,07708,Taman Molek,Jalan Masai Baru- Johor Kawasan Industri Pandan- Malaysia Johor- Malaysia,1.53196,103.79258,80007708,http://otp.transitos.io/otpws/api/cities/2/index/stops/1:80007708,0,
80007713,07713,Desa Perwira,Jalan Masai Baru- Johor Kawasan Industri Pandan- Malaysia Johor- Malaysia,1.53513,103.78953,80007713,http://otp.transitos.io/otpws/api/cities/2/index/stops/1:80007713,0,
80010439,10439,OPP R&F Mall,BA:OPP R&F Mall,1.459885,103.768063,80010439,http://otp.transitos.io/otpws/api/cities/2/index/stops/1:80010439,0,
80011287,11287,MENARA MSC CYBERPORT,BA:MENARA MSC CYBERPORT,1.46215,103.77208,80011287,http://otp.transitos.io/otpws/api/cities/2/index/stops/1:80011287,0,
80003043,03043,Foon Yew High School,Jalan Ibrahim Sultan- Johor Taman Pelangi- Malaysia Johor- Malaysia,1.46739,103.77919,80003043,http://otp.transitos.io/otpws/api/cities/2/index/stops/1:80003043,0,
80003038,03038,The Zone,Jalan Ibrahim Sultan- Johor Taman Pelangi- Malaysia Johor- Malaysia,1.46913,103.78136,80003038,http://otp.transitos.io/otpws/api/cities/2/index/stops/1:80003038,0,
80003047,03047,Flat Sri Stulang,Jalan Stulang Laut- Johor Taman Pelangi- Malaysia Johor- Malaysia,1.47145,103.78108,80003047,http://otp.transitos.io/otpws/api/cities/2/index/stops/1:80003047,0,
80011778,11778,Medan Selera Stulang Walk,BA:Medan Selera Stulang Walk,1.4730171542615644,103.77987335015806,80011778,http://otp.transitos.io/otpws/api/cities/2/index/stops/1:80011778,0,
80003037,03037,Pasir Pelangi,Jalan Pasir Pelangi Jalan Sri Pelangi 1 Johor- Malaysia,1.47749,103.78088,80003037,http://otp.transitos.io/otpws/api/cities/2/index/stops/1:80003037,0,
80011779,11779,Masjid Pasir Pelangi,BA:Masjid Pasir Pelangi,1.4880272679427697,103.78610948134445,80011779,http://otp.transitos.io/otpws/api/cities/2/index/stops/1:80011779,0,
80003050,03050,Opp Shell Taman Iskandar,Jalan Pasir Pelangi Pasir Pelangi- Malaysia Johor- Malaysia,1.49061,103.78544,80003050,http://otp.transitos.io/otpws/api/cities/2/index/stops/1:80003050,0,
80011780,11780,Pangsapuri Pasir Pelangi,BA:Pangsapuri Pasir Pelangi,1.494062929899105,103.7838497992417,80011780,http://otp.transitos.io/otpws/api/cities/2/index/stops/1:80011780,0,
80008806,08806,SOGO Mid Valley,BA:SOGO Mid Valley,1.5018,103.77548,80008806,http://otp.transitos.io/otpws/api/cities/2/index/stops/1:80008806,0,
80011781,11781,MBSB Mid Valley,BA:MBSB Mid Valley,1.49772000391916,103.777344669779,80011781,http://otp.transitos.io/otpws/api/cities/2/index/stops/1:80011781,0,
80007751,07751,Bakar Batu,Bakar Batu Interchange- Johor Taman Sri Stulang- Malaysia Johor- Malaysia,1.49612,103.78418,80007751,http://otp.transitos.io/otpws/api/cities/2/index/stops/1:80007751,0,
80003057,03057,Petronas Bayu Puteri,Johor Bahru East Coast Highway- Johor Taman Sri Stulang- Malaysia Johor- Malaysia,1.49709,103.78918,80003057,http://otp.transitos.io/otpws/api/cities/2/index/stops/1:80003057,0,
80008565,08565,Shell Jambatan Permas,BA:Shell Jambatan Permas,1.492396,103.805058,80008565,http://otp.transitos.io/otpws/api/cities/2/index/stops/1:80008565,0,
80004221,04221,RENAISSANCE,2- Johor Taman Sri Stulang- Malaysia Johor- Malaysia,1.49401,103.81302,80004221,http://otp.transitos.io/otpws/api/cities/2/index/stops/1:80004221,0,
80011791,11791,AEON (Parking),BA:AEON (Parking),1.49472,103.81859,80011791,http://otp.transitos.io/otpws/api/cities/2/index/stops/1:80011791,0,
80003060,03060,AEON (Side) Permas Jaya,Jalan Permas 9/5- Johor Bandar Baru Kota Puteri- Malaysia Johor- Malaysia,1.49601,103.81972,80003060,http://otp.transitos.io/otpws/api/cities/2/index/stops/1:80003060,0,
80011784,11784,Jalan Permas 8/1,BA:Jalan Permas 8/1,1.4976411016065534,103.82173363612982,80011784,http://otp.transitos.io/otpws/api/cities/2/index/stops/1:80011784,0,
80008583,08583,Dewan Serbaguna Permas Jaya,BA:Dewan Serbaguna Permas Jaya,1.497679,103.824135,80008583,http://otp.transitos.io/otpws/api/cities/2/index/stops/1:80008583,0,
80010127,10127,Pangsapuri Permas Jaya Zon 1,BA:Pangsapuri Permas Jaya Zon 1,1.49921,103.82691,80010127,http://otp.transitos.io/otpws/api/cities/2/index/stops/1:80010127,0,
80010128,10128,Masjid Permas 8,BA:Masjid Permas 8,1.50005,103.8248,80010128,http://otp.transitos.io/otpws/api/cities/2/index/stops/1:80010128,0,
80003062,03062,Jalan Permas 7,Jalan Permas 7- Johor Bandar Baru Kota Puteri- Malaysia Johor- Malaysia,1.50008,103.82568,80003062,http://otp.transitos.io/otpws/api/cities/2/index/stops/1:80003062,0,
80003063,03063,Mon Glori,Jalan Permas 7- Johor Bandar Baru Permas Jaya- Malaysia Johor- Malaysia,1.50002,103.82199,80003063,http://otp.transitos.io/otpws/api/cities/2/index/stops/1:80003063,0,
80003065,03065,SK Permas Jaya 3,Jalan Permas 7- Johor Bandar Baru Permas Jaya- Malaysia Johor- Malaysia,1.50009,103.82034,80003065,http://otp.transitos.io/otpws/api/cities/2/index/stops/1:80003065,0,
80011790,11790,Jalan Permas Utara,BA:Jalan Permas Utara,1.504224578679908,103.81780302827026,80011790,http://otp.transitos.io/otpws/api/cities/2/index/stops/1:80011790,0,
80011789,11789,Jalan Permas 4/6,BA:Jalan Permas 4/6,1.5048017608247064,103.81974099739149,80011789,http://otp.transitos.io/otpws/api/cities/2/index/stops/1:80011789,0,
80011788,11788,Pasar Mini Jin Seng,BA:Pasar Mini Jin Seng,1.505826491720921,103.82084023674494,80011788,http://otp.transitos.io/otpws/api/cities/2/index/stops/1:80011788,0,
80011787,11787,Jalan Permas 3,BA:Jalan Permas 3,1.508526657665778,103.82071478919563,80011787,http://otp.transitos.io/otpws/api/cities/2/index/stops/1:80011787,0,
80003075,03075,Poliklinik Rozikin,Jalan Permas 1- Johor Taman Perindustrian Plentong- Malaysia Johor- Malaysia,1.51094,103.82061,80003075,http://otp.transitos.io/otpws/api/cities/2/index/stops/1:80003075,0,
80011785,11785,Jalan Permas 1/18,BA:Jalan Permas 1/18,1.51325381842701,103.820600548499,80011785,http://otp.transitos.io/otpws/api/cities/2/index/stops/1:80011785,0,
80003073,03073,SK Permas Jaya 1,Jalan Permas 1- Johor Taman Plentong Utama- Malaysia Johor- Malaysia,1.51485,103.82077,80003073,http://otp.transitos.io/otpws/api/cities/2/index/stops/1:80003073,0,
80011786,11786,Jalan Permas 1/6,BA:Jalan Permas 1/6,1.5170530435237872,103.82175917720528,80011786,http://otp.transitos.io/otpws/api/cities/2/index/stops/1:80011786,0,
80003071,03071,Jalan Permas 1/2,Jalan Permas 1- Johor Taman Perindustrian Plentong- Malaysia Johor- Malaysia,1.51785,103.82169,80003071,http://otp.transitos.io/otpws/api/cities/2/index/stops/1:80003071,0,
80003070,03070,Hub Permas Jaya,Jalan Permas 1/1- Johor Taman Plentong Utama- Malaysia Johor- Malaysia,1.51877,103.82025,80003070,http://otp.transitos.io/otpws/api/cities/2/index/stops/1:80003070,0,
80011783,11783,Aeon (Back),BA:Aeon (Back),1.49764,103.81871,80011783,http://otp.transitos.io/otpws/api/cities/2/index/stops/1:80011783,0,
80011782,11782,UNI Klinik,BA:UNI Klinik,1.49766,103.81722,80011782,http://otp.transitos.io/otpws/api/cities/2/index/stops/1:80011782,0,
80008557,08557,AEON (MAIN) Permas Jaya,BA:AEON (MAIN) Permas Jaya,1.4958,103.81655,80008557,http://otp.transitos.io/otpws/api/cities/2/index/stops/1:80008557,0,
80003058,03058,Opp RENAISSANCE,JB Easct Coast Hwy Taman Sri Stulang- Malaysia Johor- Malaysia,1.49391,103.81311,80003058,http://otp.transitos.io/otpws/api/cities/2/index/stops/1:80003058,0,
80003055,03055,Opp Petronas Bayu Puteri,Johor Bahru East Coast Highway- Johor Taman Sri Stulang- Malaysia Johor- Malaysia,1.49699,103.78998,80003055,http://otp.transitos.io/otpws/api/cities/2/index/stops/1:80003055,0,
80008571,08571,Kg Bakar Batu,BA:Kg Bakar Batu,1.49596,103.78445,80008571,http://otp.transitos.io/otpws/api/cities/2/index/stops/1:80008571,0,
80003048,03048,Shell Taman Iskandar,Jalan Pasir Pelangi- Johor Taman Sri Stulang- Malaysia Johor- Malaysia,1.49095,103.78567,80003048,http://otp.transitos.io/otpws/api/cities/2/index/stops/1:80003048,0,
80008558,08558,Istana Pasir Pelangi,BA:Istana Pasir Pelangi,1.47813,103.7813,80008558,http://otp.transitos.io/otpws/api/cities/2/index/stops/1:80008558,0,
80003044,03044,Opp Foon Yew High School,Jalan Ibrahim Sultan- Johor Taman Pelangi- Malaysia Johor- Malaysia,1.46723,103.7791,80003044,http://otp.transitos.io/otpws/api/cities/2/index/stops/1:80003044,0,
80011288,11288,Opp Menara MSC Cyberport,BA:Opp Menara MSC Cyberport,1.46209,103.77256,80011288,http://otp.transitos.io/otpws/api/cities/2/index/stops/1:80011288,0,
80010438,10438,R&F Mall,BA:R&F Mall,1.46001,103.76859,80010438,http://otp.transitos.io/otpws/api/cities/2/index/stops/1:80010438,0,
80011772,11772,Affin Bank,BA:Affin Bank,1.4861,103.75455,80011772,http://otp.transitos.io/otpws/api/cities/2/index/stops/1:80011772,0,
80011771,11771,Taman Perkuburan Jepun,BA:Taman Perkuburan Jepun,1.48932,103.75604,80011771,http://otp.transitos.io/otpws/api/cities/2/index/stops/1:80011771,0,
80011770,11770,Tanah Perkuburan Tamil,BA:Tanah Perkuburan Tamil,1.49128,103.75681,80011770,http://otp.transitos.io/otpws/api/cities/2/index/stops/1:80011770,0,
80011769,11769,Perbadanan ISlam,BA:Perbadanan ISlam,1.49503,103.75985,80011769,http://otp.transitos.io/otpws/api/cities/2/index/stops/1:80011769,0,
80011768,11768,SJK (C) Foon Yew 1,BA:SJK (C) Foon Yew 1,1.49643,103.76196,80011768,http://otp.transitos.io/otpws/api/cities/2/index/stops/1:80011768,0,
80013298,13298,Opp Wisma Daiman,BA:Opp Wisma Daiman,1.4952,103.76674,80013298,http://otp.transitos.io/otpws/api/cities/2/index/stops/1:80013298,0,
80013301,13301,CIMB Southkey,BA:CIMB Southkey,1.49598,103.77645,80013301,http://otp.transitos.io/otpws/api/cities/2/index/stops/1:80013301,0,
80008566,08566,Opp Shell Jambatan Permas,BA:Opp Shell Jambatan Permas,1.49247,103.80522,80008566,http://otp.transitos.io/otpws/api/cities/2/index/stops/1:80008566,0,
80011793,11793,Jalan Permas 9/17,BA:Jalan Permas 9/17,1.4944575171161179,103.82299059967562,80011793,http://otp.transitos.io/otpws/api/cities/2/index/stops/1:80011793,0,
80013312,13312,Cahaya Kota Puteri,BA:Cahaya Kota Puteri,1.4909,103.84168,80013312,http://otp.transitos.io/otpws/api/cities/2/index/stops/1:80013312,0,
80008937,08937,SDS Jalan Kota,BA:SDS Jalan Kota,1.49217,103.84251,80008937,http://otp.transitos.io/otpws/api/cities/2/index/stops/1:80008937,0,
80013314,13314,Rasa Al Aqsa Nasi Arab,BA:Rasa Al Aqsa Nasi Arab,1.49481,103.84435,80013314,http://otp.transitos.io/otpws/api/cities/2/index/stops/1:80013314,0,
80013316,13316,Taman Megah Ria,BA:Taman Megah Ria,1.50096,103.84949,80013316,http://otp.transitos.io/otpws/api/cities/2/index/stops/1:80013316,0,
80010125,10125,OYO Jalan Bayan,BA:OYO Jalan Bayan,1.49998,103.85096,80010125,http://otp.transitos.io/otpws/api/cities/2/index/stops/1:80010125,0,
80006562,06562,SK Sri Kota Puteri,Jalan Bayan- Johor Taman Bukit Rinting- Malaysia Johor- Malaysia,1.49879,103.85274,80006562,http://otp.transitos.io/otpws/api/cities/2/index/stops/1:80006562,0,
80013303,13303,Simpang Bayan 3/1,BA:Simpang Bayan 3/1,1.49812,103.85381,80013303,http://otp.transitos.io/otpws/api/cities/2/index/stops/1:80013303,0,
80002880,02880, Apartmen Ria 1,Jalan Rinting- Johor Taman Bukit Rinting- Malaysia Johor- Malaysia,1.49668,103.85477,80002880,http://otp.transitos.io/otpws/api/cities/2/index/stops/1:80002880,0,
80013304,13304,Jalan Cenderai 7,BA:Jalan Cenderai 7,1.49491,103.85224,80013304,http://otp.transitos.io/otpws/api/cities/2/index/stops/1:80013304,0,
80013305,13305,99 Speedmart Jalan Kempas,BA:99 Speedmart Jalan Kempas,1.49178,103.85013,80013305,http://otp.transitos.io/otpws/api/cities/2/index/stops/1:80013305,0,
80000219,00219,SJK (C) Chee Tong,Jalan Kempas- Johor Taman Megah Ria- Malaysia Johor- Malaysia,1.48977,103.8499,80000219,http://otp.transitos.io/otpws/api/cities/2/index/stops/1:80000219,0,
80011641,11641,PPR Megah Ria,BA:PPR Megah Ria,1.4871,103.85492,80011641,http://otp.transitos.io/otpws/api/cities/2/index/stops/1:80011641,0,
80002879,02879,Flat Ketapang,Jalan Rinting- Johor Taman Rinting- Malaysia Johor- Malaysia,1.48677,103.85794,80002879,http://otp.transitos.io/otpws/api/cities/2/index/stops/1:80002879,0,
80002878,02878,SK Taman Rinting 3,Jalan Rinting- Johor Taman Rinting- Malaysia Johor- Malaysia,1.48442,103.85929,80002878,http://otp.transitos.io/otpws/api/cities/2/index/stops/1:80002878,0,
80011640,11640,Jalan Balau 11,BA:Jalan Balau 11,1.4839,103.86503,80011640,http://otp.transitos.io/otpws/api/cities/2/index/stops/1:80011640,0,
80013306,13306,Flat Jalan Balau Blok E,BA:Flat Jalan Balau Blok E,1.4839,103.86611,80013306,http://otp.transitos.io/otpws/api/cities/2/index/stops/1:80013306,0,
80013307,13307,Taman Komuniti Balau,BA:Taman Komuniti Balau,1.48477,103.86707,80013307,http://otp.transitos.io/otpws/api/cities/2/index/stops/1:80013307,0,
80002876,02876,Kampung Sungai Rinting D,Pasir Gudang Highway- Johor Taman Rinting- Malaysia Johor- Malaysia,1.48874,103.87024,80002876,http://otp.transitos.io/otpws/api/cities/2/index/stops/1:80002876,0,
80013271,13271,Mydin Taman Rinting 2,BA:Mydin Taman Rinting 2,1.49136,103.8676,80013271,http://otp.transitos.io/otpws/api/cities/2/index/stops/1:80013271,0,
80013308,13308,Petronas Jalan Rinting,BA:Petronas Jalan Rinting,1.49244,103.86747,80013308,http://otp.transitos.io/otpws/api/cities/2/index/stops/1:80013308,0,
80007585,07585,LOTUS BANDAR SERI ALAM,Jalan Seri Alam- Johor Taman Rinting- Malaysia Johor- Malaysia,1.49615,103.87012,80007585,http://otp.transitos.io/otpws/api/cities/2/index/stops/1:80007585,0,
80013310,13310,Opp Beside Todays Market Jalan Suria,BA:Opp Beside Todays Market Jalan Suria,1.49374,103.8735,80013310,http://otp.transitos.io/otpws/api/cities/2/index/stops/1:80013310,0,
80013317,13317,Taman Bukit Dahlia 1,BA:Taman Bukit Dahlia 1,1.47939,103.89739,80013317,http://otp.transitos.io/otpws/api/cities/2/index/stops/1:80013317,0,
80013320,13320,Taman Bukit Dahlia 2,BA:Taman Bukit Dahlia 2,1.48165,103.89836,80013320,http://otp.transitos.io/otpws/api/cities/2/index/stops/1:80013320,0,
80013322,13322,Sekolah Agama Taman Bukit Dahlia,BA:Sekolah Agama Taman Bukit Dahlia,1.48399,103.90021,80013322,http://otp.transitos.io/otpws/api/cities/2/index/stops/1:80013322,0,
80011505,11505,Taman Bukit Dahlia 3,BA:Taman Bukit Dahlia 3,1.48373,103.90298,80011505,http://otp.transitos.io/otpws/api/cities/2/index/stops/1:80011505,0,
80011513,11513,Opp Taman Cendana Blok 10,BA:Opp Taman Cendana Blok 10,1.48836385309527,103.906682735588,80011513,http://otp.transitos.io/otpws/api/cities/2/index/stops/1:80011513,0,
80011506,11506,Taman Cendana Blok 34,BA:Taman Cendana Blok 34,1.4879311461244105,103.91186043209818,80011506,http://otp.transitos.io/otpws/api/cities/2/index/stops/1:80011506,0,
80004217,04217,Dewan Serbaguna Taman Cendana 2,jalan cendana masai johor,1.48796,103.91253,80004217,http://otp.transitos.io/otpws/api/cities/2/index/stops/1:80004217,0,
80004464,04464,Opp Taman Kota Masai,Jalan Kong Kong- Johor Taman Nusa Damai Johor- Malaysia,1.48995,103.91777,80004464,http://otp.transitos.io/otpws/api/cities/2/index/stops/1:80004464,0,
80011507,11507,McDonalds Jalan Kong Kong,BA:McDonalds Jalan Kong Kong,1.49247,103.91915,80011507,http://otp.transitos.io/otpws/api/cities/2/index/stops/1:80011507,0,
80008578,08578,Eco Tropics,BA:Eco Tropics,1.49322,103.92298,80008578,http://otp.transitos.io/otpws/api/cities/2/index/stops/1:80008578,0,
80011155,11155,Petronas Kota Masai Bacang,BA:Petronas Kota Masai Bacang,1.49067,103.92687,80011155,http://otp.transitos.io/otpws/api/cities/2/index/stops/1:80011155,0,
80013323,13323,Lotus Kota Masai,BA:Lotus Kota Masai,1.48444,103.9359,80013323,http://otp.transitos.io/otpws/api/cities/2/index/stops/1:80013323,0,
80011154,11154,Opp Petronas Kota Masai Bacang,BA:Opp Petronas Kota Masai Bacang,1.49049,103.92692,80011154,http://otp.transitos.io/otpws/api/cities/2/index/stops/1:80011154,0,
80008579,08579,Opp Eco Tropics,BA:Opp Eco Tropics,1.49334,103.92255,80008579,http://otp.transitos.io/otpws/api/cities/2/index/stops/1:80008579,0,
80004465,04465,Opp McDonalds Jalan Kong Kong,Jalan Kong Kong- Johor Taman Desa Rakyat- Malaysia Johor- Malaysia,1.49237,103.91932,80004465,http://otp.transitos.io/otpws/api/cities/2/index/stops/1:80004465,0,
80011508,11508,Taman Kota Masai,BA:Taman Kota Masai,1.48965228599332,103.917934460563,80011508,http://otp.transitos.io/otpws/api/cities/2/index/stops/1:80011508,0,
80004216,04216,Opp Dewan Serbaguna Taman Cendana 2,Jalan Cendana- Johor Taman Masai- Malaysia Johor- Malaysia,1.48771,103.91217,80004216,http://otp.transitos.io/otpws/api/cities/2/index/stops/1:80004216,0,
80004390,04390,Opp Taman Cendana Blok 34,Jalan Cendana- Johor Taman Masai- Malaysia Johor- Malaysia,1.4878,103.91074,80004390,http://otp.transitos.io/otpws/api/cities/2/index/stops/1:80004390,0,
80004389,04389,Taman Cendana Blok 10,Jalan Cendana- Johor Taman Masai- Malaysia Johor- Malaysia,1.48834,103.90683,80004389,http://otp.transitos.io/otpws/api/cities/2/index/stops/1:80004389,0,
80004388,04388,SK Taman Cendana,Jalan Cendana- Johor Taman Masai- Malaysia Johor- Malaysia,1.4866,103.90475,80004388,http://otp.transitos.io/otpws/api/cities/2/index/stops/1:80004388,0,
80013324,13324,Opp Taman Bukit Dahlia 3,BA:Opp Taman Bukit Dahlia 3,1.48358,103.90306,80013324,http://otp.transitos.io/otpws/api/cities/2/index/stops/1:80013324,0,
80013321,13321,Opp Sekolah Agama Taman Bukit Dahlia,BA:Opp Sekolah Agama Taman Bukit Dahlia,1.48386,103.90024,80013321,http://otp.transitos.io/otpws/api/cities/2/index/stops/1:80013321,0,
80013319,13319,Opp Taman Bukit Dahlia 2,BA:Opp Taman Bukit Dahlia 2,1.48193,103.89861,80013319,http://otp.transitos.io/otpws/api/cities/2/index/stops/1:80013319,0,
80013318,13318,Opp Taman Bukit Dahlia 1,BA:Opp Taman Bukit Dahlia 1,1.47922,103.89745,80013318,http://otp.transitos.io/otpws/api/cities/2/index/stops/1:80013318,0,
80013311,13311,Beside Todays Market Jalan Suria,BA:Beside Todays Market Jalan Suria,1.4939,103.87347,80013311,http://otp.transitos.io/otpws/api/cities/2/index/stops/1:80013311,0,
80011638,11638,Opp Regency Specialist Hospital,BA:Opp Regency Specialist Hospital,1.49688,103.87163,80011638,http://otp.transitos.io/otpws/api/cities/2/index/stops/1:80011638,0,
80011637,11637,Opp Lotus Bandar Sri Alam,BA:Opp Lotus Bandar Sri Alam,1.49647,103.87057,80011637,http://otp.transitos.io/otpws/api/cities/2/index/stops/1:80011637,0,
80013309,13309,Opp Petronas Jalan Rinting,BA:Opp Petronas Jalan Rinting,1.49227,103.86749,80013309,http://otp.transitos.io/otpws/api/cities/2/index/stops/1:80013309,0,
80013315,13315,Opp Rasa Al Aqsa Nasi Arab,BA:Opp Rasa Al Aqsa Nasi Arab,1.49473,103.84441,80013315,http://otp.transitos.io/otpws/api/cities/2/index/stops/1:80013315,0,
80008936,08936,Opp SDS Jalan Kota,BA:Opp SDS Jalan Kota,1.4918,103.84247,80008936,http://otp.transitos.io/otpws/api/cities/2/index/stops/1:80008936,0,
80013313,13313,Opp Cahaya Kota Puteri,BA:Opp Cahaya Kota Puteri,1.49075,103.84173,80013313,http://otp.transitos.io/otpws/api/cities/2/index/stops/1:80013313,0,
80011794,11794,Jalan Permas 15/1,BA:Jalan Permas 15/1,1.4942047671808225,103.82300167603405,80011794,http://otp.transitos.io/otpws/api/cities/2/index/stops/1:80011794,0,
80013302,13302,Opp AEON (Parking),BA:Opp AEON (Parking),1.49442,103.81867,80013302,http://otp.transitos.io/otpws/api/cities/2/index/stops/1:80013302,0,
80013300,13300,Opp CIMB Southkey,BA:Opp CIMB Southkey,1.49582,103.77659,80013300,http://otp.transitos.io/otpws/api/cities/2/index/stops/1:80013300,0,
80013299,13299,Wisma Daiman,BA:Wisma Daiman,1.49506,103.7668,80013299,http://otp.transitos.io/otpws/api/cities/2/index/stops/1:80013299,0,
80013297,13297,Opp Tanah Perkuburan Tamil,BA:Opp Tanah Perkuburan Tamil,1.49071,103.7568,80013297,http://otp.transitos.io/otpws/api/cities/2/index/stops/1:80013297,0,
80013296,13296,Opp Tanah Perkuburan Jepun,BA:Opp Tanah Perkuburan Jepun,1.48929,103.75615,80013296,http://otp.transitos.io/otpws/api/cities/2/index/stops/1:80013296,0,
80013295,13295,Opp Affin Bank,BA:Opp Affin Bank,1.48605,103.75463,80013295,http://otp.transitos.io/otpws/api/cities/2/index/stops/1:80013295,0,
80008055,08055,Lot 10,No results No results No results,1.45426,103.75828,80008055,http://otp.transitos.io/otpws/api/cities/2/index/stops/1:80008055,0,
80003184,03184,OPP Pusat Islam Negeri Johor,14B- Johor Kampung Jawa- Malaysia Johor- Malaysia,1.45671,103.74825,80003184,http://otp.transitos.io/otpws/api/cities/2/index/stops/1:80003184,0,
80003187,03187,OPP Dataran Bandaraya Johor Bahru / Sri ,Jalan Titiwangsa 12- Johor Kampung Mohd Amin- Malaysia Johor- Malaysia,1.45938,103.73828,80003187,http://otp.transitos.io/otpws/api/cities/2/index/stops/1:80003187,0,
80011299,11299,Beletime,BA:Beletime,1.4628,103.73158,80011299,http://otp.transitos.io/otpws/api/cities/2/index/stops/1:80011299,0,
80003188,03188,OPP M-Suites,Jalan Skudai- Johor Kampung Jawa- Malaysia Johor- Malaysia,1.46453,103.72975,80003188,http://otp.transitos.io/otpws/api/cities/2/index/stops/1:80003188,0,
80003189,03189,Danga Bay,Jalan Skudai- Johor Kampung Jawa- Malaysia Johor- Malaysia,1.47321,103.72495,80003189,http://otp.transitos.io/otpws/api/cities/2/index/stops/1:80003189,0,
80002933,02933,Tune Hotel,Iskandar Coastal Highway- Johor Kampung Skudai Kiri- Malaysia Johor- Malaysia,1.48411,103.71892,80002933,http://otp.transitos.io/otpws/api/cities/2/index/stops/1:80002933,0,
80002936,02936,Opp Bandar Baru Uda,Jalan Skudai Jalan Skudai Kiri Johor- Malaysia,1.48883,103.71243,80002936,http://otp.transitos.io/otpws/api/cities/2/index/stops/1:80002936,0,
80011300,11300,Klinik Kesihatan Tampoi,BA:Klinik Kesihatan Tampoi,1.49244,103.70725,80011300,http://otp.transitos.io/otpws/api/cities/2/index/stops/1:80011300,0,
80011302,11302,SK Pengkalan Rinting,BA:SK Pengkalan Rinting,1.49382,103.70509,80011302,http://otp.transitos.io/otpws/api/cities/2/index/stops/1:80011302,0,
80011305,11305,Opp Plaza Angsana,BA:Opp Plaza Angsana,1.49493,103.70351,80011305,http://otp.transitos.io/otpws/api/cities/2/index/stops/1:80011305,0,
80002935,02935,Kampong Pasir,108- Johor Taman Tampoi- Malaysia Johor- Malaysia,1.49665,103.7014,80002935,http://otp.transitos.io/otpws/api/cities/2/index/stops/1:80002935,0,
80003195,03195,SK Kampung Pasir / OPP Giant Tampoi,Jalan Skudai Lorong Mempelam Johor- Malaysia,1.49887,103.6983,80003195,http://otp.transitos.io/otpws/api/cities/2/index/stops/1:80003195,0,
80003199,03199,OPP Kompleks Pekan Rabu,Jalan Skudai Jalan Cempedak Johor- Malaysia,1.50074,103.69568,80003199,http://otp.transitos.io/otpws/api/cities/2/index/stops/1:80003199,0,
80004174,04174,Kipmart Tampoi,Skudai Highway- Johor Taman Tampoi Indah- Malaysia Johor- Malaysia,1.50824,103.68931,80004174,http://otp.transitos.io/otpws/api/cities/2/index/stops/1:80004174,0,
80011335,11335,OPP TAMAN JOHOR,BA:OPP TAMAN JOHOR,1.51163,103.68694,80011335,http://otp.transitos.io/otpws/api/cities/2/index/stops/1:80011335,0,
80008491,08491,Opp Paradigm Mall,Jalan Bertingkat Skudai Jalan Bertingkat Skudai Johor,1.51525,103.68457,80008491,http://otp.transitos.io/otpws/api/cities/2/index/stops/1:80008491,0,
80000410,00410,Mcdonalds Taman Sutera,Skudai Highway- Johor Taman Tampoi Indah- Malaysia Johor- Malaysia,1.52311,103.67908,80000410,http://otp.transitos.io/otpws/api/cities/2/index/stops/1:80000410,0,
80000412,00412,OPP Petron TUTA,Skudai Interchange- Johor Taman Skudai- Malaysia Johor- Malaysia,1.52808,103.67058,80000412,http://otp.transitos.io/otpws/api/cities/2/index/stops/1:80000412,0,
80003171,03171,TM Skudai,Skudai Interchange- Johor Taman Skudai- Malaysia Johor- Malaysia,1.53504,103.66477,80003171,http://otp.transitos.io/otpws/api/cities/2/index/stops/1:80003171,0,
80003170,03170,MBIP Skudai,Skudai Highway- Johor Kampung Poh Che Leng- Malaysia Johor- Malaysia,1.53675,103.66318,80003170,http://otp.transitos.io/otpws/api/cities/2/index/stops/1:80003170,0,
80003169,03169,Pejabat Pos Skudai,Skudai Highway- Johor Kampung Poh Che Leng- Malaysia Johor- Malaysia,1.53952,103.66067,80003169,http://otp.transitos.io/otpws/api/cities/2/index/stops/1:80003169,0,
80011522,11522,Opp Skudai Parade,BA:Opp Skudai Parade,1.5415614731517646,103.65878422583813,80011522,http://otp.transitos.io/otpws/api/cities/2/index/stops/1:80011522,0,
80003168,03168,Shell Taman Puteri Skudai,Skudai Highway- Johor Kampung Poh Che Leng- Malaysia Johor- Malaysia,1.54483,103.65729,80003168,http://otp.transitos.io/otpws/api/cities/2/index/stops/1:80003168,0,
80003167,03167,Opp Kuarters PUB,112- Johor kulai Johor- Malaysia,1.55379,103.65847,80003167,http://otp.transitos.io/otpws/api/cities/2/index/stops/1:80003167,0,
80003089,03089,UTM Skudai,Skudai Highway- Johor Kulai Johor- Malaysia,1.56496,103.6605,80003089,http://otp.transitos.io/otpws/api/cities/2/index/stops/1:80003089,0,
80003091,03091,Taman Teknologi,Skudai Highway- Johor Kulai Johor- Malaysia,1.57097,103.66052,80003091,http://otp.transitos.io/otpws/api/cities/2/index/stops/1:80003091,0,
80010273,10273,Opp kampung Sepakat,BA:Opp kampung Sepakat,1.58197,103.65337,80010273,http://otp.transitos.io/otpws/api/cities/2/index/stops/1:80010273,0,
80012244,12244,Taman Scientex Senai,BA:Taman Scientex Senai,1.58407,103.65027,80012244,http://otp.transitos.io/otpws/api/cities/2/index/stops/1:80012244,0,
80003166,03166,Sepakat Jaya,Lebuhraya Senai Taman Aman Johor- Malaysia,1.59027,103.64784,80003166,http://otp.transitos.io/otpws/api/cities/2/index/stops/1:80003166,0,
80003165,03165,SK Senai,Jalan Persekutuan 1- Johor skudai Johor- Malaysia,1.59554,103.64551,80003165,http://otp.transitos.io/otpws/api/cities/2/index/stops/1:80003165,0,
80004176,04176,OPP Hab Pekan Senai,Jalan Persekutuan 1- Johor kulai Johor- Malaysia,1.59991,103.64467,80004176,http://otp.transitos.io/otpws/api/cities/2/index/stops/1:80004176,0,
80012242,12242,Masjid Jamek Bandar Senai,BA:Masjid Jamek Bandar Senai,1.60573,103.64764,80012242,http://otp.transitos.io/otpws/api/cities/2/index/stops/1:80012242,0,
80003163,03163,BSN Senai,Lebuhraya Senai Taman Senai Utama Johor- Malaysia,1.61283,103.64722,80003163,http://otp.transitos.io/otpws/api/cities/2/index/stops/1:80003163,0,
80003162,03162,Pejabat LLM,Lebuhraya Senai Taman Senai Utama Johor- Malaysia,1.62027,103.6458,80003162,http://otp.transitos.io/otpws/api/cities/2/index/stops/1:80003162,0,
80003160,03160,Caltex Saleng,Jalan Persekutuan 1- Johor skudai Johor- Malaysia,1.62932,103.63714,80003160,http://otp.transitos.io/otpws/api/cities/2/index/stops/1:80003160,0,
80003158,03158,Petronas Saleng,Jalan Persekutuan 1- Johor skudai Johor- Malaysia,1.63249,103.63364,80003158,http://otp.transitos.io/otpws/api/cities/2/index/stops/1:80003158,0,
80003157,03157,TJ Mart Saleng,Jalan Persekutuan 1- Johor skudai Johor- Malaysia,1.63327,103.63275,80003157,http://otp.transitos.io/otpws/api/cities/2/index/stops/1:80003157,0,
80003156,03156,7-Eleven Saleng,Jalan Persekutuan 1- Johor skudai Johor- Malaysia,1.63523,103.63033,80003156,http://otp.transitos.io/otpws/api/cities/2/index/stops/1:80003156,0,
80003155,03155,Hospital Kulai,Jalan Persekutuan 1- Johor skudai Johor- Malaysia,1.63918,103.62508,80003155,http://otp.transitos.io/otpws/api/cities/2/index/stops/1:80003155,0,
80003144,03144,Pertubuhan Peladang ,Jalan Persekutuan 1- Johor Bandar Indahpura Johor- Malaysia,1.64544,103.61591,80003144,http://otp.transitos.io/otpws/api/cities/2/index/stops/1:80003144,0,
80003143,03143,Indahpura Iris Park,Jalan Persekutuan 1- Johor skudai Johor- Malaysia,1.64748,103.61371,80003143,http://otp.transitos.io/otpws/api/cities/2/index/stops/1:80003143,0,
80003142,03142,Public Bank Kulai,Jalan Persekutuan 1- Johor skudai Johor- Malaysia,1.65118,103.61097,80003142,http://otp.transitos.io/otpws/api/cities/2/index/stops/1:80003142,0,
80011283,11283,Opp Medan Selera Kulai,BA:Opp Medan Selera Kulai,1.65428,103.60954,80011283,http://otp.transitos.io/otpws/api/cities/2/index/stops/1:80011283,0,
80011284,11284,MPKU,BA:MPKU,1.65895,103.60669,80011284,http://otp.transitos.io/otpws/api/cities/2/index/stops/1:80011284,0,
80003140,03140,OPP Arked Mara ,Jalan Persekutuan 1- Johor Taman Kulai Besar Johor- Malaysia,1.66083,103.60428,80003140,http://otp.transitos.io/otpws/api/cities/2/index/stops/1:80003140,0,
80003123,03123,Arked Mara,Jalan Persekutuan 1- Johor skudai Johor- Malaysia,1.66109,103.60393,80003123,http://otp.transitos.io/otpws/api/cities/2/index/stops/1:80003123,0,
80011285,11285,Opp MPKU,BA:Opp MPKU,1.65905,103.60679,80011285,http://otp.transitos.io/otpws/api/cities/2/index/stops/1:80011285,0,
80003122,03122,Medan Selera Kulai,Jalan Persekutuan 1- Johor skudai Johor- Malaysia,1.65438,103.60962,80003122,http://otp.transitos.io/otpws/api/cities/2/index/stops/1:80003122,0,
80003121,03121,OPP Public Bank Kulai,Jalan Susur Kulai 1- Johor skudai Johor- Malaysia,1.65099,103.61133,80003121,http://otp.transitos.io/otpws/api/cities/2/index/stops/1:80003121,0,
80003120,03120,OPP Indahpura Iris Park,Jalan Persekutuan 1- Johor skudai Johor- Malaysia,1.64841,103.61313,80003120,http://otp.transitos.io/otpws/api/cities/2/index/stops/1:80003120,0,
80004275,04275,OPP Pertubuhan Peladang ,Jalan Besar Bandar Indahpura Johor- Malaysia,1.64518,103.61653,80004275,http://otp.transitos.io/otpws/api/cities/2/index/stops/1:80004275,0,
80003117,03117,OPP Hospital Kulai,Jalan Persekutuan 1- Johor kulai Johor- Malaysia,1.63981,103.62447,80003117,http://otp.transitos.io/otpws/api/cities/2/index/stops/1:80003117,0,
80003114,03114,OPP 7-Eleven Saleng,Jalan Persekutuan 1- Johor kulai Johor- Malaysia,1.63584,103.62972,80003114,http://otp.transitos.io/otpws/api/cities/2/index/stops/1:80003114,0,
80008933,08933,Opp TJ Mart Saleng,BA:Opp TJ Mart Saleng,1.633561327222587,103.63262677813464,80008933,http://otp.transitos.io/otpws/api/cities/2/index/stops/1:80008933,0,
80003112,03112,OPP Petronas Saleng,Jalan Persekutuan 1- Johor kulai Johor- Malaysia,1.63293,103.63332,80003112,http://otp.transitos.io/otpws/api/cities/2/index/stops/1:80003112,0,
80003111,03111,OPP Caltex Saleng,Jalan Persekutuan 1- Johor kulai Johor- Malaysia,1.62874,103.63793,80003111,http://otp.transitos.io/otpws/api/cities/2/index/stops/1:80003111,0,
80003110,03110,OPP Pejabat LLM,Jalan Persekutuan 1- Johor Senai Johor- Malaysia,1.62052,103.64603,80003110,http://otp.transitos.io/otpws/api/cities/2/index/stops/1:80003110,0,
80004226,04226,OPP BSN Senai,jalan besar kulai senai johor,1.61284,103.64736,80004226,http://otp.transitos.io/otpws/api/cities/2/index/stops/1:80004226,0,
80012243,12243,Opp Masjid Jamek Bandar Senai,BA:Opp Masjid Jamek Bandar Senai,1.60639,103.64782,80012243,http://otp.transitos.io/otpws/api/cities/2/index/stops/1:80012243,0,
80003095,03095,Hab Pekan Senai,Jalan Persekutuan 1- Johor Kulai Johor- Malaysia,1.60129,103.64505,80003095,http://otp.transitos.io/otpws/api/cities/2/index/stops/1:80003095,0,
80003094,03094,OPP SK Senai,Jalan Persekutuan 1- Johor Kulai Johor- Malaysia,1.59698,103.64551,80003094,http://otp.transitos.io/otpws/api/cities/2/index/stops/1:80003094,0,
80003092,03092,OPP Sepakat Jaya,Lebuhraya Senai Taman Aman Johor- Malaysia,1.5911,103.64792,80003092,http://otp.transitos.io/otpws/api/cities/2/index/stops/1:80003092,0,
80012245,12245,Opp Taman Scientex Senai,BA:Opp Taman Scientex Senai,1.58417,103.65035,80012245,http://otp.transitos.io/otpws/api/cities/2/index/stops/1:80012245,0,
80010272,10272,Kampung Sepakat,BA:Kampung Sepakat,1.58173,103.65426,80010272,http://otp.transitos.io/otpws/api/cities/2/index/stops/1:80010272,0,
80012241,12241,Opp Taman Teknologi,BA:Opp Taman Teknologi,1.57091,103.6608,80012241,http://otp.transitos.io/otpws/api/cities/2/index/stops/1:80012241,0,
80012240,12240,Opp UTM Skudai,BA:Opp UTM Skudai,1.5654,103.66071,80012240,http://otp.transitos.io/otpws/api/cities/2/index/stops/1:80012240,0,
80003088,03088,Kuarters PUB,Skudai Highway- Johor Kulai Johor- Malaysia,1.55472,103.65882,80003088,http://otp.transitos.io/otpws/api/cities/2/index/stops/1:80003088,0,
80011554,11554,Opp Shell Tmn Puteri Skudai,BA:Opp Shell Tmn Puteri Skudai,1.54437,103.65784,80011554,http://otp.transitos.io/otpws/api/cities/2/index/stops/1:80011554,0,
80003087,03087,Skudai Parade,Skudai Highway- Johor Kampung Poh Che Leng- Malaysia Johor- Malaysia,1.54212,103.65897,80003087,http://otp.transitos.io/otpws/api/cities/2/index/stops/1:80003087,0,
80008641,08641,Opp Pejabat Pos Skudai,BA:Opp Pejabat Pos Skudai,1.53982,103.6606,80008641,http://otp.transitos.io/otpws/api/cities/2/index/stops/1:80008641,0,
80008637,08637,Opp MBIP Skudai,BA:Opp MBIP Skudai,1.5375,103.66291,80008637,http://otp.transitos.io/otpws/api/cities/2/index/stops/1:80008637,0,
80011555,11555,Opp TM Skudai,BA:Opp TM Skudai,1.5356996391339357,103.66472268303048,80011555,http://otp.transitos.io/otpws/api/cities/2/index/stops/1:80011555,0,
80003083,03083,Petron TUTA,Jalan Shahbandar 8- Johor Taman Skudai- Malaysia Johor- Malaysia,1.52811,103.67087,80003083,http://otp.transitos.io/otpws/api/cities/2/index/stops/1:80003083,0,
80007594,07594,Opp Mcdonalds Taman Sutera,Skudai Highway- Johor Taman Dato Penggawa Barat- Malaysia Johor- Malaysia,1.52261,103.67966,80007594,http://otp.transitos.io/otpws/api/cities/2/index/stops/1:80007594,0,
80008490,08490,Paradigm Mall,Jalan Bertingkat Skudai Jalan Bertingkat Skudai Johor,1.51513,103.68491,80008490,http://otp.transitos.io/otpws/api/cities/2/index/stops/1:80008490,0,
80008035,08035,Taman Johor,No results No results No results,1.51153,103.68748,80008035,http://otp.transitos.io/otpws/api/cities/2/index/stops/1:80008035,0,
80003207,03207,OPP Kipmart Tampoi,Skudai Highway- Johor Taman Dato Penggawa Barat- Malaysia Johor- Malaysia,1.50915,103.68898,80003207,http://otp.transitos.io/otpws/api/cities/2/index/stops/1:80003207,0,
80003159,03159,Kompleks Pekan Rabu,Jalan Skudai Pekan Rabu Johor- Malaysia,1.50081,103.69585,80003159,http://otp.transitos.io/otpws/api/cities/2/index/stops/1:80003159,0,
80003161,03161,Opp SK Kampung Pasir / Giant Tampoi,Skudai Highway- Johor Taman Tampoi- Malaysia Johor- Malaysia,1.49892,103.69862,80003161,http://otp.transitos.io/otpws/api/cities/2/index/stops/1:80003161,0,
80004173,04173,Opp Kampung Pasir,108- Johor Taman Tampoi- Malaysia Johor- Malaysia,1.49698,103.70152,80004173,http://otp.transitos.io/otpws/api/cities/2/index/stops/1:80004173,0,
80011304,11304,Plaza Angsana,BA:Plaza Angsana,1.49582,103.70333,80011304,http://otp.transitos.io/otpws/api/cities/2/index/stops/1:80011304,0,
80011303,11303,Opp SK Pengkalan Rinting,BA:Opp SK Pengkalan Rinting,1.49447,103.70527,80011303,http://otp.transitos.io/otpws/api/cities/2/index/stops/1:80011303,0,
80011301,11301,Opp Klinik Kesihatan Tampoi,BA:Opp Klinik Kesihatan Tampoi,1.49263,103.70768,80011301,http://otp.transitos.io/otpws/api/cities/2/index/stops/1:80011301,0,
80004181,04181,Bandar Baru Uda,Jalan Padi 1- Johor Kampung Usaha Jaya- Malaysia Johor- Malaysia,1.48961,103.71202,80004181,http://otp.transitos.io/otpws/api/cities/2/index/stops/1:80004181,0,
80011332,11332,Opp Tune Hotel,BA:Opp Tune Hotel,1.48383,103.7197,80011332,http://otp.transitos.io/otpws/api/cities/2/index/stops/1:80011332,0,
80003175,03175,OPP Danga Bay,Jalan Skudai- Johor Kampung Jawa- Malaysia Johor- Malaysia,1.47516,103.72474,80003175,http://otp.transitos.io/otpws/api/cities/2/index/stops/1:80003175,0,
80003177,03177,M-Suites,Jalan Skudai- Johor Kampung Jawa- Malaysia Johor- Malaysia,1.46473,103.72993,80003177,http://otp.transitos.io/otpws/api/cities/2/index/stops/1:80003177,0,
80003180,03180,Dataran Bandaraya Johor Bahru / Sri Gela,Jalan Titiwangsa 12- Johor Kampung Mohd Amin- Malaysia Johor- Malaysia,1.45947,103.73857,80003180,http://otp.transitos.io/otpws/api/cities/2/index/stops/1:80003180,0,
80004171,04171,Hospital Sultanah Aminah,Jalan Abu Bakar- Johor Kampung Gertak Merah- Malaysia Johor- Malaysia,1.45748,103.74656,80004171,http://otp.transitos.io/otpws/api/cities/2/index/stops/1:80004171,0,
80003183,03183,Pusat Islam Negeri Johor,Jalan Skudai Pusat Islam Negeri Johor Johor- Malaysia,1.45676,103.74912,80003183,http://otp.transitos.io/otpws/api/cities/2/index/stops/1:80003183,0,
80004358,04358,SMK Skudai,Skudai Pontian Highway- Malaysia Taman Sri Skudai- Malaysia johor,1.54873,103.65399,80004358,http://otp.transitos.io/otpws/api/cities/2/index/stops/1:80004358,0,
80004356,04356,TAMAN SRI SKUDAI,Skudai Pontian Highway- Malaysia Taman Sri Skudai- Malaysia johor ,1.54969,103.65196,80004356,http://otp.transitos.io/otpws/api/cities/2/index/stops/1:80004356,0,
80011523,11523,Taman Desa Skudai,BA:Taman Desa Skudai,1.5464369805422322,103.64456754648978,80011523,http://otp.transitos.io/otpws/api/cities/2/index/stops/1:80011523,0,
80007741,07741,BHP Tmn Desa Skudai,Jalan Sejahtera 1- Johor Taman Desa Skudai- Malaysia Johor- Malaysia,1.54457,103.64393,80007741,http://otp.transitos.io/otpws/api/cities/2/index/stops/1:80007741,0,
80007740,07740,Opp Hostel Kilang,Jalan Sejahtera 1- Johor Taman Desa Skudai- Malaysia Johor- Malaysia,1.54114,103.64133,80007740,http://otp.transitos.io/otpws/api/cities/2/index/stops/1:80007740,0,
80011525,11525,Desa Skudai Apartment,BA:Desa Skudai Apartment,1.5370151718432798,103.63498075905956,80011525,http://otp.transitos.io/otpws/api/cities/2/index/stops/1:80011525,0,
80011527,11527,Perumahan Staf UTM Desa Skudai,BA:Perumahan Staf UTM Desa Skudai,1.5365,103.63342,80011527,http://otp.transitos.io/otpws/api/cities/2/index/stops/1:80011527,0,
80011529,11529,SMK Taman Universiti 2,BA:SMK Taman Universiti 2,1.535683633544582,103.63262492860024,80011529,http://otp.transitos.io/otpws/api/cities/2/index/stops/1:80011529,0,
80004199,04199,Terminal Taman Universiti,Jalan Kebudayaan- Johor Taman Universiti- Malaysia Johor- Malaysia,1.53833,103.62836,80004199,http://otp.transitos.io/otpws/api/cities/2/index/stops/1:80004199,0,
80004366,04366,Medan Selera MBIP,Jalan Kebudayaan- Johor Taman Universiti- Malaysia Johor- Malaysia,1.53558,103.62818,80004366,http://otp.transitos.io/otpws/api/cities/2/index/stops/1:80004366,0,
80004365,04365,SK Taman Universiti 4,Jalan Kebudayaan- Johor Taman Skudai Indah- Malaysia Johor- Malaysia,1.53427,103.62701,80004365,http://otp.transitos.io/otpws/api/cities/2/index/stops/1:80004365,0,
80004317,04317,Opp Masjid Tan Sri Ainuddin,Jalan Kebudayaan- Johor Taman Universiti- Malaysia Johor- Malaysia,1.53022,103.62352,80004317,http://otp.transitos.io/otpws/api/cities/2/index/stops/1:80004317,0,
80004369,04369,SImpang Jalan Kemuliaan 21,Jalan Kemuliaan- Johor Taman Universiti- Malaysia Johor- Malaysia,1.52912,103.62434,80004369,http://otp.transitos.io/otpws/api/cities/2/index/stops/1:80004369,0,
80004345,04345,SImpang Jalan Kemuliaan 30,Jalan Kemuliaan- Johor Taman Universiti- Malaysia Johor- Malaysia,1.52689,103.62491,80004345,http://otp.transitos.io/otpws/api/cities/2/index/stops/1:80004345,0,
80004370,04370,Surau Al Falah Taman U,Jalan Kemuliaan- Johor Taman Universiti- Malaysia Johor- Malaysia,1.52489,103.62155,80004370,http://otp.transitos.io/otpws/api/cities/2/index/stops/1:80004370,0,
80004347,04347,SK Taman Universiti 3,Jalan Kemuliaan- Johor Taman Universiti- Malaysia Johor- Malaysia,1.52658,103.61965,80004347,http://otp.transitos.io/otpws/api/cities/2/index/stops/1:80004347,0,
80010317,10317,SImpang Jalan Kemuliaan 9,BA:SImpang Jalan Kemuliaan 9,1.52924,103.61981,80010317,http://otp.transitos.io/otpws/api/cities/2/index/stops/1:80010317,0,
80012299,12299,Simpang Jalan Kemuliaan 2,BA:Simpang Jalan Kemuliaan 2,1.53087,103.61999,80012299,http://otp.transitos.io/otpws/api/cities/2/index/stops/1:80012299,0,
80008643,08643,Opp ZY Motorsport,BA:Opp ZY Motorsport,1.53073,103.61862,80008643,http://otp.transitos.io/otpws/api/cities/2/index/stops/1:80008643,0,
80004371,04371,Jalan Penyiaran,Jalan Penyiaran- Johor Taman Universiti- Malaysia Johor- Malaysia,1.52952,103.61659,80004371,http://otp.transitos.io/otpws/api/cities/2/index/stops/1:80004371,0,
80004373,04373,SK Taman Universiti 2,Jalan Penyiaran- Johor Taman Universiti- Malaysia Johor- Malaysia,1.53212,103.61377,80004373,http://otp.transitos.io/otpws/api/cities/2/index/stops/1:80004373,0,
80004374,04374,SA Taman Universiti,Jalan Penyiaran- Johor Taman Universiti- Malaysia Johor- Malaysia,1.53401,103.61237,80004374,http://otp.transitos.io/otpws/api/cities/2/index/stops/1:80004374,0,
80004351,04351,Surau Al Mukminun Taman U,Jalan Penyiaran- Johor Taman Universiti- Malaysia Johor- Malaysia,1.53571,103.61411,80004351,http://otp.transitos.io/otpws/api/cities/2/index/stops/1:80004351,0,
80004375,04375,Simpang Jalan Penyiaran 51,Jalan Penyiaran- Johor Taman Universiti- Malaysia Johor- Malaysia,1.53718,103.61565,80004375,http://otp.transitos.io/otpws/api/cities/2/index/stops/1:80004375,0,
80004353,04353,SK Taman Universiti 1,Jalan Penyiaran- Johor Taman Universiti- Malaysia Johor- Malaysia,1.53608,103.61822,80004353,http://otp.transitos.io/otpws/api/cities/2/index/stops/1:80004353,0,
80012300,12300,Simpang Jalan Penyiaran 9,BA:Simpang Jalan Penyiaran 9,1.53385,103.62057,80012300,http://otp.transitos.io/otpws/api/cities/2/index/stops/1:80012300,0,
80004377,04377,Kelab Sukan dan Rekreasi Taman Universit,Jalan Pendidikan- Johor Taman Universiti- Malaysia Johor- Malaysia,1.53408,103.62178,80004377,http://otp.transitos.io/otpws/api/cities/2/index/stops/1:80004377,0,
80004378,04378,Kawasan Perindustrian Taman Universiti,Jalan Pendidikan- Johor Taman Universiti- Malaysia Johor- Malaysia,1.53597,103.62366,80004378,http://otp.transitos.io/otpws/api/cities/2/index/stops/1:80004378,0,
80012302,12302,Opp Perpustakaan Awam Taman Universiti,BA:Opp Perpustakaan Awam Taman Universiti,1.53792,103.62555,80012302,http://otp.transitos.io/otpws/api/cities/2/index/stops/1:80012302,0,
80004354,04354,Opp AEON Taman Universiti,Jalan Pendidikan- Johor Taman Universiti- Malaysia Johor- Malaysia,1.54144,103.62828,80004354,http://otp.transitos.io/otpws/api/cities/2/index/stops/1:80004354,0,
80011534,11534,Opp Taman Awam MBIP Taman U,BA:Opp Taman Awam MBIP Taman U,1.5426601237850788,103.62695483034852,80011534,http://otp.transitos.io/otpws/api/cities/2/index/stops/1:80011534,0,
80004321,04321,Opp Pangsapuri Meranti,Jalan Pulai- Johor Taman Pulai Utama- Malaysia Johor- Malaysia,1.54468,103.62485,80004321,http://otp.transitos.io/otpws/api/cities/2/index/stops/1:80004321,0,
80004322,04322,U MALL,Jalan Perdagangan;Jalan Pulai 19- Johor Taman Pulai Utama- Malaysia Johor- Malaysia,1.54666,103.62268,80004322,http://otp.transitos.io/otpws/api/cities/2/index/stops/1:80004322,0,
80010310,10310,Taman Pulai Flora,BA:Taman Pulai Flora,1.55067,103.62434,80010310,http://otp.transitos.io/otpws/api/cities/2/index/stops/1:80010310,0,
80004395,04395,Petron Jalan Sri Pulai,Jalan Sri Pulai- Malaysia Taman Sri Pulai- Malaysia johor,1.56409,103.6188,80004395,http://otp.transitos.io/otpws/api/cities/2/index/stops/1:80004395,0,
80004382,04382,Medan Selera Tmn Sri Pulai 1,Jalan Sri Pulai- Malaysia Taman Sri Pulai- Malaysia johor ,1.56745,103.61881,80004382,http://otp.transitos.io/otpws/api/cities/2/index/stops/1:80004382,0,
80004392,04392,Medan Selera Tmn Sri Pulai 2,Jalan Sri Pulai- Johor Taman Teratai- Malaysia Johor- Malaysia,1.56848,103.61883,80004392,http://otp.transitos.io/otpws/api/cities/2/index/stops/1:80004392,0,
80010286,10286,Sekolah Agama Taman Sri Pulai,BA:Sekolah Agama Taman Sri Pulai,1.57026,103.61873,80010286,http://otp.transitos.io/otpws/api/cities/2/index/stops/1:80010286,0,
80004391,04391,Taman Sri Pulai (Jalan Batai 9),Jalan Rotan- Malaysia Taman Teratai- Malaysia johor,1.57133,103.61695,80004391,http://otp.transitos.io/otpws/api/cities/2/index/stops/1:80004391,0,
80004325,04325,Taman Teratai 1,Jalan Batai 13- Johor Taman Teratai- Malaysia Johor- Malaysia,1.57142,103.6155,80004325,http://otp.transitos.io/otpws/api/cities/2/index/stops/1:80004325,0,
80004385,04385,Taman Teratai 2,Jalan Rotan- Malaysia Taman Teratai- Malaysia johor,1.57144,103.61345,80004385,http://otp.transitos.io/otpws/api/cities/2/index/stops/1:80004385,0,
80011542,11542,Jalan Palas 5 Taman Teratai,BA:Jalan Palas 5 Taman Teratai,1.5705908922033176,103.61223047196947,80011542,http://otp.transitos.io/otpws/api/cities/2/index/stops/1:80011542,0,
80011543,11543,Jalan Teratai Taman Teratai,BA:Jalan Teratai Taman Teratai,1.57005889599442,103.6123976791684,80011543,http://otp.transitos.io/otpws/api/cities/2/index/stops/1:80011543,0,
80004327,04327,SRI PULAI PERDANA (1),Skudai Pontian Highway- Malaysia Taman Teratai- Malaysia Johor- Malaysia,1.56574,103.61151,80004327,http://otp.transitos.io/otpws/api/cities/2/index/stops/1:80004327,0,
80004417,04417,Sri Pulai Perdana (2),Skudai Pontian Highway- Malaysia Taman Teratai- Malaysia johor ,1.56631,103.60915,80004417,http://otp.transitos.io/otpws/api/cities/2/index/stops/1:80004417,0,
80004398,04398,Opp Kampung Nesa,Skudai Pontian Highway- Johor Taman Teratai- Malaysia Johor- Malaysia,1.56651,103.60628,80004398,http://otp.transitos.io/otpws/api/cities/2/index/stops/1:80004398,0,
80010284,10284,Opp Simpang Empat Bandar Pulai Jaya,BA:Opp Simpang Empat Bandar Pulai Jaya,1.56652,103.59868,80010284,http://otp.transitos.io/otpws/api/cities/2/index/stops/1:80010284,0,
80010283,10283,Opp SRI PULAI PERDANA 2 (1),BA:Opp SRI PULAI PERDANA 2 (1),1.56538,103.59822,80010283,http://otp.transitos.io/otpws/api/cities/2/index/stops/1:80010283,0,
80011545,11545,Opp Pasaraya Songmart SriPulai Perdana 2,BA:Opp Pasaraya Songmart SriPulai Perdana 2,1.56229030945843,103.598217522922,80011545,http://otp.transitos.io/otpws/api/cities/2/index/stops/1:80011545,0,
80004330,04330,Petronas Kangkar Pulai,Jalan Kangkar Pulai- Malaysia Kampung Melayu Kangkar Pulai- Malaysia Johor- Malaysia,1.55812,103.5953,80004330,http://otp.transitos.io/otpws/api/cities/2/index/stops/1:80004330,0,
80004401,04401,Dewan Raya Kangkar Pulai,Jalan Kangkar Pulai- Malaysia Kampung Melayu Kangkar Pulai- Malaysia johor,1.55731,103.5935,80004401,http://otp.transitos.io/otpws/api/cities/2/index/stops/1:80004401,0,
80011547,11547,Jalan Pulai Bestari 22(1),BA:Jalan Pulai Bestari 22(1),1.55858,103.59098,80011547,http://otp.transitos.io/otpws/api/cities/2/index/stops/1:80011547,0,
80011548,11548,Opp JALAN PULAI BESTARI 22 (2),BA:Opp JALAN PULAI BESTARI 22 (2),1.55766,103.58955,80011548,http://otp.transitos.io/otpws/api/cities/2/index/stops/1:80011548,0,
80010282,10282,FLAT KANGKAR PULAI (1),BA:FLAT KANGKAR PULAI (1),1.55383,103.5895,80010282,http://otp.transitos.io/otpws/api/cities/2/index/stops/1:80010282,0,
80011550,11550,Flat Kangkar Pulai (2),BA:Flat Kangkar Pulai (2),1.55335579427907,103.58800208828863,80011550,http://otp.transitos.io/otpws/api/cities/2/index/stops/1:80011550,0,
80011551,11551,Flat Kangkar Pulai (3),BA:Flat Kangkar Pulai (3),1.5533791962857515,103.58647954609614,80011551,http://otp.transitos.io/otpws/api/cities/2/index/stops/1:80011551,0,
80004334,04334,Opp SK Kangkar Pulai 2,Persiaran Pulai Indah- Johor Taman Pulai Indah- Malaysia Johor- Malaysia,1.55167,103.5807,80004334,http://otp.transitos.io/otpws/api/cities/2/index/stops/1:80004334,0,
80008640,08640,Taman Pulai Indah (1 ),BA:Taman Pulai Indah (1 ),1.5451,103.58074,80008640,http://otp.transitos.io/otpws/api/cities/2/index/stops/1:80008640,0,
80004336,04336,Taman Pulai Indah (2),Persiaran Pulai Indah- Johor Taman Pulai Indah- Malaysia Johor- Malaysia,1.54408,103.58069,80004336,http://otp.transitos.io/otpws/api/cities/2/index/stops/1:80004336,0,
80013326,13326,Opp Viscaria Pulai Indah,BA:Opp Viscaria Pulai Indah,1.5429,103.58072,80013326,http://otp.transitos.io/otpws/api/cities/2/index/stops/1:80013326,0,
80010275,10275,Masjid Taman Pulai Indah,BA:Masjid Taman Pulai Indah,1.5382,103.582,80010275,http://otp.transitos.io/otpws/api/cities/2/index/stops/1:80010275,0,
80013328,13328,Persiaran Pulai Mutiara 1,BA:Persiaran Pulai Mutiara 1,1.53451,103.58189,80013328,http://otp.transitos.io/otpws/api/cities/2/index/stops/1:80013328,0,
80013331,13331,Persiaran Pulai Mutiara 2,BA:Persiaran Pulai Mutiara 2,1.5323,103.58183,80013331,http://otp.transitos.io/otpws/api/cities/2/index/stops/1:80013331,0,
80013332,13332,Taman Pulai Mutiara 1,BA:Taman Pulai Mutiara 1,1.5283,103.58275,80013332,http://otp.transitos.io/otpws/api/cities/2/index/stops/1:80013332,0,
80013333,13333,Taman Pulai Mutiara 2,BA:Taman Pulai Mutiara 2,1.52856,103.58487,80013333,http://otp.transitos.io/otpws/api/cities/2/index/stops/1:80013333,0,
80013334,13334,Taman Pulai Mutiara 3,BA:Taman Pulai Mutiara 3,1.52852,103.58792,80013334,http://otp.transitos.io/otpws/api/cities/2/index/stops/1:80013334,0,
80013339,13339,Pangsapuri Pulai Mutiara 2,BA:Pangsapuri Pulai Mutiara 2,1.52489,103.58955,80013339,http://otp.transitos.io/otpws/api/cities/2/index/stops/1:80013339,0,
80013338,13338,Pangsapuri Pulai Mutiara 1,BA:Pangsapuri Pulai Mutiara 1,1.52384,103.58836,80013338,http://otp.transitos.io/otpws/api/cities/2/index/stops/1:80013338,0,
80013335,13335,Taman Pulai Mutiara 4,BA:Taman Pulai Mutiara 4,1.52378,103.58682,80013335,http://otp.transitos.io/otpws/api/cities/2/index/stops/1:80013335,0,
80013336,13336,Taman Pulai Mutiara 5,BA:Taman Pulai Mutiara 5,1.52469,103.58288,80013336,http://otp.transitos.io/otpws/api/cities/2/index/stops/1:80013336,0,
80013337,13337,Taman Pulai Mutiara 6,BA:Taman Pulai Mutiara 6,1.52741,103.58221,80013337,http://otp.transitos.io/otpws/api/cities/2/index/stops/1:80013337,0,
80013330,13330,Opp Persiaran Pulai Mutiara 2,BA:Opp Persiaran Pulai Mutiara 2,1.53265,103.58174,80013330,http://otp.transitos.io/otpws/api/cities/2/index/stops/1:80013330,0,
80013329,13329,Opp Persiaran Pulai Mutiara 1,BA:Opp Persiaran Pulai Mutiara 1,1.53456,103.58178,80013329,http://otp.transitos.io/otpws/api/cities/2/index/stops/1:80013329,0,
80013327,13327,Opp Masjid Taman Pulai Indah,BA:Opp Masjid Taman Pulai Indah,1.5383,103.58189,80013327,http://otp.transitos.io/otpws/api/cities/2/index/stops/1:80013327,0,
80013325,13325,Viscaria Pulai Indah,BA:Viscaria Pulai Indah,1.54304,103.58057,80013325,http://otp.transitos.io/otpws/api/cities/2/index/stops/1:80013325,0,
80013341,13341,Opp Taman Pulai Indah (2),BA:Opp Taman Pulai Indah (2),1.54409,103.58059,80013341,http://otp.transitos.io/otpws/api/cities/2/index/stops/1:80013341,0,
80013340,13340,Opp Taman Pulai Indah (1),BA:Opp Taman Pulai Indah (1),1.54511,103.5806,80013340,http://otp.transitos.io/otpws/api/cities/2/index/stops/1:80013340,0,
80008639,08639,SK Kangkar Pulai 2,BA:SK Kangkar Pulai 2,1.55249,103.58055,80008639,http://otp.transitos.io/otpws/api/cities/2/index/stops/1:80008639,0,
80010281,10281,Opp FLAT KANGKAR PULAI (1),BA:Opp FLAT KANGKAR PULAI (1),1.55394,103.58939,80010281,http://otp.transitos.io/otpws/api/cities/2/index/stops/1:80010281,0,
80004411,04411,JALAN PULAI BESTARI 22 (2),Jalan Persiaran Pulai Utama- Johor Kampung Melayu Kangkar Pulai- Malaysia Johor- Malaysia,1.55757,103.58943,80004411,http://otp.transitos.io/otpws/api/cities/2/index/stops/1:80004411,0,
80004399,04399,Opp Petronas Kangkar Pulai,Jalan Kangkar Pulai- Malaysia Kampung Melayu Kangkar Pulai- Malaysia johor,1.55849,103.59523,80004399,http://otp.transitos.io/otpws/api/cities/2/index/stops/1:80004399,0,
80011546,11546,Pasaraya Songmart SriPulai Perdana 2,BA:Pasaraya Songmart SriPulai Perdana 2,1.56238093886963,103.598103984863,80011546,http://otp.transitos.io/otpws/api/cities/2/index/stops/1:80011546,0,
80004329,04329,SRI PULAI PERDANA 2,Jalan Pulai Jaya 1/1- Johor Taman Sri Pulai Perdana- Malaysia Johor- Malaysia,1.56549,103.59807,80004329,http://otp.transitos.io/otpws/api/cities/2/index/stops/1:80004329,0,
80004414,04414,Simpang Empat Bandar Pulai Jaya,Skudai Pontian Highway- Johor skudai Johor- Malaysia,1.56663,103.59875,80004414,http://otp.transitos.io/otpws/api/cities/2/index/stops/1:80004414,0,
80008638,08638,Kampung Nesa,BA:Kampung Nesa,1.56663,103.60605,80008638,http://otp.transitos.io/otpws/api/cities/2/index/stops/1:80008638,0,
80011544,11544,Opp Sri Pulai Perdana (2),BA:Opp Sri Pulai Perdana (2),1.56659994713035,103.609183181763,80011544,http://otp.transitos.io/otpws/api/cities/2/index/stops/1:80011544,0,
80004416,04416,Opp SRI PULAI PERDANA (1),Skudai Pontian Highway- Malaysia Taman Teratai- Malaysia johor,1.56591,103.61144,80004416,http://otp.transitos.io/otpws/api/cities/2/index/stops/1:80004416,0,
80011541,11541,Opp Sekolah Agama Taman Sri Pulai,BA:Opp Sekolah Agama Taman Sri Pulai,1.57023463566769,103.618928310888,80011541,http://otp.transitos.io/otpws/api/cities/2/index/stops/1:80011541,0,
80011540,11540,Opp Medan Selera Tmn Sri Pulai 2,BA:Opp Medan Selera Tmn Sri Pulai 2,1.5684997058957133,103.61897173415962,80011540,http://otp.transitos.io/otpws/api/cities/2/index/stops/1:80011540,0,
80004393,04393,Opp Medan Selera Tmn Sri Pulai 1,Jalan Pakis- Johor Taman Teratai- Malaysia Johor- Malaysia,1.56731,103.6189,80004393,http://otp.transitos.io/otpws/api/cities/2/index/stops/1:80004393,0,
80010287,10287,Opp Petron Taman Sri Pulai,BA:Opp Petron Taman Sri Pulai,1.56378,103.61888,80010287,http://otp.transitos.io/otpws/api/cities/2/index/stops/1:80010287,0,
80011149,11149,Opp Taman Pulai Flora,BA:Opp Taman Pulai Flora,1.55029,103.62425,80011149,http://otp.transitos.io/otpws/api/cities/2/index/stops/1:80011149,0,
80011532,11532,Opp U Mall,BA:Opp U Mall,1.5467278942964342,103.62318690000306,80011532,http://otp.transitos.io/otpws/api/cities/2/index/stops/1:80011532,0,
80011533,11533,Pangsapuri Meranti,BA:Pangsapuri Meranti,1.54392,103.62594,80011533,http://otp.transitos.io/otpws/api/cities/2/index/stops/1:80011533,0,
80011535,11535,Taman Awam MBIP Taman U,BA:Taman Awam MBIP Taman U,1.5428,103.62712,80011535,http://otp.transitos.io/otpws/api/cities/2/index/stops/1:80011535,0,
80011573,11573,AEON Taman Universiti,BA:AEON Taman Universiti,1.54169,103.6282,80011573,http://otp.transitos.io/otpws/api/cities/2/index/stops/1:80011573,0,
80004320,04320,Perpustakaan Awam Taman Universiti,Jalan Pendidikan- Johor Taman Universiti- Malaysia Johor- Malaysia,1.53757,103.62539,80004320,http://otp.transitos.io/otpws/api/cities/2/index/stops/1:80004320,0,
80012301,12301,Opp Kawasan Perindustrian Taman Universi,BA:Opp Kawasan Perindustrian Taman Universi,1.53599,103.6238,80012301,http://otp.transitos.io/otpws/api/cities/2/index/stops/1:80012301,0,
80004318,04318,Opp Kelab Sukan dan Rekreasi Taman Unive,Jalan Pendidikan- Johor Taman Universiti- Malaysia Johor- Malaysia,1.53436,103.62227,80004318,http://otp.transitos.io/otpws/api/cities/2/index/stops/1:80004318,0,
80005515,05515,ZY Motorsport,Jalan Pendidikan- Johor Taman Universiti- Malaysia Johor- Malaysia,1.53075,103.6185,80005515,http://otp.transitos.io/otpws/api/cities/2/index/stops/1:80005515,0,
80004363,04363,Masjid Tan Sri Ainuddin Tmn U,Jalan Kebudayaan- Johor Taman Universiti- Malaysia Johor- Malaysia,1.53037,103.62349,80004363,http://otp.transitos.io/otpws/api/cities/2/index/stops/1:80004363,0,
80004277,04277,Al Ikhsan Taman U,Jalan Kebudayaan- Johor Taman Universiti- Malaysia Johor- Malaysia,1.53965,103.63174,80004277,http://otp.transitos.io/otpws/api/cities/2/index/stops/1:80004277,0,
80011531,11531,Tadika Nuri,BA:Tadika Nuri,1.5383874201742262,103.6307336778426,80011531,http://otp.transitos.io/otpws/api/cities/2/index/stops/1:80011531,0,
80011530,11530,Opp SMK Taman Universiti 2,BA:Opp SMK Taman Universiti 2,1.5357202654521378,103.6325695816513,80011530,http://otp.transitos.io/otpws/api/cities/2/index/stops/1:80011530,0,
80011528,11528,Opp Perumahan Staf UTM Desa Skudai,BA:Opp Perumahan Staf UTM Desa Skudai,1.536520270643371,103.63332083998895,80011528,http://otp.transitos.io/otpws/api/cities/2/index/stops/1:80011528,0,
80011526,11526,Opp Desa Skudai Apartment,BA:Opp Desa Skudai Apartment,1.53708,103.63505,80011526,http://otp.transitos.io/otpws/api/cities/2/index/stops/1:80011526,0,
80007739,07739,Hostel Kilang,Jalan Sejahtera 1- Johor Taman Desa Skudai- Malaysia Johor- Malaysia,1.54065,103.64076,80007739,http://otp.transitos.io/otpws/api/cities/2/index/stops/1:80007739,0,
80007742,07742,Opp BHP Tmn Desa Skudai,Jalan Sejahtera 1- Johor Taman Desa Skudai- Malaysia Johor- Malaysia,1.5448,103.64401,80007742,http://otp.transitos.io/otpws/api/cities/2/index/stops/1:80007742,0,
80011524,11524,Opp Taman Desa Skudai,BA:Opp Taman Desa Skudai,1.5461635191012162,103.64443684740391,80011524,http://otp.transitos.io/otpws/api/cities/2/index/stops/1:80011524,0,
80008477,08477,Opp TAMAN SRI SKUDAI,Lebuhraya Skudai Lebuhraya Skudai Johor,1.55066,103.65003,80008477,http://otp.transitos.io/otpws/api/cities/2/index/stops/1:80008477,0,
80008636,08636,Opp SMK Skudai,BA:Opp SMK Skudai,1.54911,103.65405,80008636,http://otp.transitos.io/otpws/api/cities/2/index/stops/1:80008636,0,
80011333,11333,Opp Beletime,Opp  Beletime,1.46304,103.73155,80011333,http://otp.transitos.io/otpws/api/cities/2/index/stops/1:80011333,0,
80004172,04172,Opp Hospital Sultanah Aminah,Jalan Abu Bakar- Johor Kampung Gertak Merah- Malaysia Johor- Malaysia,1.45724,103.74661,80004172,http://otp.transitos.io/otpws/api/cities/2/index/stops/1:80004172,0,
80006536,06536,TM Point Skudai / MZ WORLD,Jalan Tun Aminah- Johor Taman Skudai- Malaysia Johor- Malaysia,1.52655,103.66744,80006536,http://otp.transitos.io/otpws/api/cities/2/index/stops/1:80006536,0,
80000416,00416,Opp KFC TUTA /FARMASI PERENNIAL,Jalan Tun Aminah- Johor Taman Tun Aminah- Malaysia Johor- Malaysia,1.52431,103.66539,80000416,http://otp.transitos.io/otpws/api/cities/2/index/stops/1:80000416,0,
80000418,00418,Opp Shell TUTA,Jalan Tun Aminah- Johor Taman Tun Aminah- Malaysia Johor- Malaysia,1.52239,103.66358,80000418,http://otp.transitos.io/otpws/api/cities/2/index/stops/1:80000418,0,
80000649,00649,Opp TERMINAL TUTA,Jalan Tun Aminah- Johor Taman Tun Aminah- Malaysia Johor- Malaysia,1.51934,103.66074,80000649,http://otp.transitos.io/otpws/api/cities/2/index/stops/1:80000649,0,
80006538,06538,PERSATUAN PENGANUT BUDHA BAO LIAN SI,Jalan Tun Aminah- Johor Taman Sutera Utama- Malaysia Johor- Malaysia,1.51757,103.65909,80006538,http://otp.transitos.io/otpws/api/cities/2/index/stops/1:80006538,0,
80000430,00430,Opp TAN FURNITURE,Jalan Tun Aminah- Johor Taman Sutera Utama- Malaysia Johor- Malaysia,1.5155,103.65717,80000430,http://otp.transitos.io/otpws/api/cities/2/index/stops/1:80000430,0,
80000432,00432,Opp MCDONALDS TUN AMINAH / KEDAI BUAH,jalan sutera pulai 2/1 No results Johor,1.51406,103.65691,80000432,http://otp.transitos.io/otpws/api/cities/2/index/stops/1:80000432,0,
80000434,00434,CALTEX TASEK CENTRAL,Jalan Hulubalang 1- Johor Taman Sutera Utama- Malaysia Johor- Malaysia,1.51284,103.65662,80000434,http://otp.transitos.io/otpws/api/cities/2/index/stops/1:80000434,0,
80000437,00437,JALAN PENDEKAR 18,Jalan Pendekar 18- Johor Taman Skudai Baru- Malaysia Johor- Malaysia,1.51234,103.65465,80000437,http://otp.transitos.io/otpws/api/cities/2/index/stops/1:80000437,0,
80000651,00651,Masjid Hjh. Mominbi Ahmad Angullia,Jalan Pendekar 1- Johor Taman Skudai Baru- Malaysia Johor- Malaysia,1.51371,103.65247,80000651,http://otp.transitos.io/otpws/api/cities/2/index/stops/1:80000651,0,
80008631,08631,Opp Blok 33 & 34,BA:Opp Blok 33 & 34,1.51144,103.65051,80008631,http://otp.transitos.io/otpws/api/cities/2/index/stops/1:80008631,0,
80000653,00653,Opp Restoran 777,Jalan Pendekar 1- Johor Taman Damai Jaya- Malaysia Johor- Malaysia,1.50965,103.65105,80000653,http://otp.transitos.io/otpws/api/cities/2/index/stops/1:80000653,0,
80000640,00640,Opp BLOK 58,Jalan Pendekar 1- Johor Taman Damai Jaya- Malaysia Johor- Malaysia,1.50876,103.652,80000640,http://otp.transitos.io/otpws/api/cities/2/index/stops/1:80000640,0,
80004424,04424,Blok 64,Jalan Tenang- Johor Taman Nusa Bestari Jaya- Malaysia Johor- Malaysia,1.50664,103.6523,80004424,http://otp.transitos.io/otpws/api/cities/2/index/stops/1:80004424,0,
80011792,11792,Simpang Jalan Tenang 1,BA:Simpang Jalan Tenang 1,1.5047624297986295,103.65054144927319,80011792,http://otp.transitos.io/otpws/api/cities/2/index/stops/1:80011792,0,
80004440,04440,Jalan Makmur 15,Jalan Tenang- Johor Taman Damai Jaya- Malaysia Johor- Malaysia,1.50287,103.6487,80004440,http://otp.transitos.io/otpws/api/cities/2/index/stops/1:80004440,0,
80008455,08455,Opp SK Taman Damai Jaya,Jalan Makmur 1 SKT Damai Jaya Johor,1.50247,103.64838,80008455,http://otp.transitos.io/otpws/api/cities/2/index/stops/1:80008455,0,
80004426,04426,Jalan Makmur 1 / Makmur 2,Jalan Tenang- Johor Taman Damai Jaya- Malaysia Johor- Malaysia,1.50069,103.64669,80004426,http://otp.transitos.io/otpws/api/cities/2/index/stops/1:80004426,0,
80007675,07675,Opp Taman Timur,Jalan Aman- Johor Taman Damai Jaya- Malaysia Johor- Malaysia,1.49916,103.64761,80007675,http://otp.transitos.io/otpws/api/cities/2/index/stops/1:80007675,0,
80008633,08633,28 mart,BA:28 mart,1.49789,103.64678,80008633,http://otp.transitos.io/otpws/api/cities/2/index/stops/1:80008633,0,
80008632,08632,Pasaraya Everjoy,BA:Pasaraya Everjoy,1.49474,103.64298,80008632,http://otp.transitos.io/otpws/api/cities/2/index/stops/1:80008632,0,
80004429,04429,Taman Nusajaya Mas 1,Jalan Silat Cekak- Johor Taman Nusa Jaya- Malaysia Johor- Malaysia,1.49339,103.64148,80004429,http://otp.transitos.io/otpws/api/cities/2/index/stops/1:80004429,0,
80004430,04430,Taman Nusa Jaya Mas 2,Jalan Selesa Jaya- Johor Taman Selesa Jaya- Malaysia Johor- Malaysia,1.49184,103.64016,80004430,http://otp.transitos.io/otpws/api/cities/2/index/stops/1:80004430,0,
80004431,04431,Pasaraya Golden Moon,Jalan Selesa Jaya- Johor Taman Selesa Jaya- Malaysia Johor- Malaysia,1.48906,103.63948,80004431,http://otp.transitos.io/otpws/api/cities/2/index/stops/1:80004431,0,
80004432,04432,Taman Selesa Jaya,Jalan Selesa Jaya- Johor Taman Selesa Jaya- Malaysia Johor- Malaysia,1.48795,103.63917,80004432,http://otp.transitos.io/otpws/api/cities/2/index/stops/1:80004432,0,
80008080,08080,Petronas Selesa Jaya,Jalan Selesa Jaya- Johor Taman Selesa Jaya- Malaysia Johor- Malaysia,1.48552,103.63862,80008080,http://otp.transitos.io/otpws/api/cities/2/index/stops/1:80008080,0,
80008081,08081,Bandar Selesa Jaya,No results No results No results,1.48445,103.63706,80008081,http://otp.transitos.io/otpws/api/cities/2/index/stops/1:80008081,0,
80011147,11147,Flat Taman Selesa Jaya,BA:Flat Taman Selesa Jaya,1.48241374139556,103.637886748995,80011147,http://otp.transitos.io/otpws/api/cities/2/index/stops/1:80011147,0,
80004428,04428,Opp Pasaraya Everjoy,Jalan Selesa Jaya- Johor Taman Selesa Jaya- Malaysia Johor- Malaysia,1.49546,103.64333,80004428,http://otp.transitos.io/otpws/api/cities/2/index/stops/1:80004428,0,
80007676,07676,Taman Timur,Jalan Aman- Johor Taman Damai Jaya- Malaysia Johor- Malaysia,1.49904,103.64754,80007676,http://otp.transitos.io/otpws/api/cities/2/index/stops/1:80007676,0,
80004425,04425,SK Taman Damai Jaya,Jalan Tenang- Johor Taman Damai Jaya- Malaysia Johor- Malaysia,1.50244,103.64829,80004425,http://otp.transitos.io/otpws/api/cities/2/index/stops/1:80004425,0,
80000641,00641,Restoran 777,Jalan Temenggung 6- Johor Taman Nusa Bestari Jaya- Malaysia Johor- Malaysia,1.5097,103.65098,80000641,http://otp.transitos.io/otpws/api/cities/2/index/stops/1:80000641,0,
80000643,00643,Blok 33 & 34,Jalan Pendekar 1- Johor Taman Skudai Baru- Malaysia Johor- Malaysia,1.51146,103.65047,80000643,http://otp.transitos.io/otpws/api/cities/2/index/stops/1:80000643,0,
80000433,00433,MCDONALDS TUN AMINAH / KEDAI BUAH,Jalan Sutera Pulai 2/1- Johor Taman Sutera Utama- Malaysia Johor- Malaysia,1.51378,103.65693,80000433,http://otp.transitos.io/otpws/api/cities/2/index/stops/1:80000433,0,
80000431,00431,TAN FURNITURE,Jalan Tun Aminah- Johor Taman Sutera Utama- Malaysia Johor- Malaysia,1.51587,103.65726,80000431,http://otp.transitos.io/otpws/api/cities/2/index/stops/1:80000431,0,
80000644,00644,Opp PERSATUAN PENGANUT BUDHA BAO LIAN SI,Jalan Nahkoda 2- Johor Taman Sutera Utama- Malaysia Johor- Malaysia,1.5179,103.65916,80000644,http://otp.transitos.io/otpws/api/cities/2/index/stops/1:80000644,0,
80000648,00648,TERMINAL TUTA,Jalan Tun Aminah- Johor Taman Tun Aminah- Malaysia Johor- Malaysia,1.51975,103.66089,80000648,http://otp.transitos.io/otpws/api/cities/2/index/stops/1:80000648,0,
80008630,08630,Shell TUTA,BA:Shell TUTA,1.52264,103.66364,80008630,http://otp.transitos.io/otpws/api/cities/2/index/stops/1:80008630,0,
80008629,08629,KFC TUTA /FARMASI PERENNIAL,BA:KFC TUTA /FARMASI PERENNIAL,1.52406,103.66498,80008629,http://otp.transitos.io/otpws/api/cities/2/index/stops/1:80008629,0,
80004360,04360,Caltex Tuta,Jalan Tun Teja- Johor Taman Skudai- Malaysia Johor- Malaysia,1.52719,103.66507,80004360,http://otp.transitos.io/otpws/api/cities/2/index/stops/1:80004360,0,
80004463,04463,BEST VISION,Jalan Gelang Patah-Skudai- Johor Taman Skudai- Malaysia Johor- Malaysia,1.52948,103.665,80004463,http://otp.transitos.io/otpws/api/cities/2/index/stops/1:80004463,0,
80007581,07581,Petronas Tampoi Utama,Pasir Gudang Highway- Johor Kampung Sri Jaya- Malaysia Johor- Malaysia,1.50194,103.68721,80007581,http://otp.transitos.io/otpws/api/cities/2/index/stops/1:80007581,0,
80011370,11370,Opp Tampoi Indah,BA:Opp Tampoi Indah,1.50172,103.68519,80011370,http://otp.transitos.io/otpws/api/cities/2/index/stops/1:80011370,0,
80007583,07583,Medan Selera Perling,Jalan Persisiran Perling- Johor Taman Tampoi Utama- Malaysia Johor- Malaysia,1.49835,103.6818,80007583,http://otp.transitos.io/otpws/api/cities/2/index/stops/1:80007583,0,
80000370,00370,Opp SK TAMAN PERLING,Jalan Persiaran Perling 1- Johor Kampung Teluk Serdang- Malaysia Johor- Malaysia,1.49486,103.68435,80000370,http://otp.transitos.io/otpws/api/cities/2/index/stops/1:80000370,0,
80011307,11307,Opp Persisiran Perling Spg Jalan Pucung,BA:Opp Persisiran Perling Spg Jalan Pucung,1.49185,103.68607,80011307,http://otp.transitos.io/otpws/api/cities/2/index/stops/1:80011307,0,
80008584,08584,Surau Al Hidayah,BA:Surau Al Hidayah,1.48928,103.68653,80008584,http://otp.transitos.io/otpws/api/cities/2/index/stops/1:80008584,0,
80011310,11310,Opp Simpang Jalan Belibis ,BA:Opp Simpang Jalan Belibis ,1.48743,103.68685,80011310,http://otp.transitos.io/otpws/api/cities/2/index/stops/1:80011310,0,
80011311,11311,Simpang Jalan Sutera,BA:Simpang Jalan Sutera,1.48529,103.68715,80011311,http://otp.transitos.io/otpws/api/cities/2/index/stops/1:80011311,0,
80011314,11314,Opp Dewan Raya Taman Perling,BA:Opp Dewan Raya Taman Perling,1.48418,103.6868,80011314,http://otp.transitos.io/otpws/api/cities/2/index/stops/1:80011314,0,
80000374,00374,Opp Perling Apartment,Jalan Persiaran Perling 1- Johor Taman Perling- Malaysia Johor- Malaysia,1.48217,103.68545,80000374,http://otp.transitos.io/otpws/api/cities/2/index/stops/1:80000374,0,
80011316,11316,Opp Shell Taman Perling,BA:Opp Shell Taman Perling,1.47983,103.68344,80011316,http://otp.transitos.io/otpws/api/cities/2/index/stops/1:80011316,0,
80000376,00376,Opp Caltex Taman Perling,Jalan Persiaran Perling 1- Johor Taman Sutera- Malaysia Johor- Malaysia,1.47614,103.67997,80000376,http://otp.transitos.io/otpws/api/cities/2/index/stops/1:80000376,0,
80011276,11276,Perling Height,BA:Perling Height,1.47449,103.67902,80011276,http://otp.transitos.io/otpws/api/cities/2/index/stops/1:80011276,0,
80011317,11317,JALAN ISMAIL SULTAN,BA:JALAN ISMAIL SULTAN,1.47266,103.6765,80011317,http://otp.transitos.io/otpws/api/cities/2/index/stops/1:80011317,0,
80000605,00605,SK Taman Perling 3,Jalan Rawa- Johor Kampung Tuah Jaya- Malaysia Johor- Malaysia,1.47284,103.67203,80000605,http://otp.transitos.io/otpws/api/cities/2/index/stops/1:80000605,0,
80000609,00609,Petronas Bukit Indah,Jalan Persiaran Perling 2- Johor Kampung Tuah Jaya- Malaysia Johor- Malaysia,1.47567,103.66582,80000609,http://otp.transitos.io/otpws/api/cities/2/index/stops/1:80000609,0,
80011330,11330,7-ELEVEN BUKIT INDAH,BA:7-ELEVEN BUKIT INDAH,1.48032,103.66498,80011330,http://otp.transitos.io/otpws/api/cities/2/index/stops/1:80011330,0,
80000387,00387,Ambank Bukit Indah,Jalan Persiaran Perling 2- Johor Kampung Tuah Jaya- Malaysia Johor- Malaysia,1.48151,103.66415,80000387,http://otp.transitos.io/otpws/api/cities/2/index/stops/1:80000387,0,
80011318,11318,Opp Lotus Bukit Indah,BA:Opp Lotus Bukit Indah,1.48166,103.66174,80011318,http://otp.transitos.io/otpws/api/cities/2/index/stops/1:80011318,0,
80008754,08754,Opp AEON Bukit Indah,BA:Opp AEON Bukit Indah,1.4812434724464252,103.65718220942426,80008754,http://otp.transitos.io/otpws/api/cities/2/index/stops/1:80008754,0,
80011320,11320,PERSIARAN INDAH (1),BA:PERSIARAN INDAH (1),1.47863,103.65573,80011320,http://otp.transitos.io/otpws/api/cities/2/index/stops/1:80011320,0,
80000401,00401,Opp BUKIT INDAH 2,Jalan Persiaran Indah Utama- Johor Nusa Idaman- Malaysia Johor- Malaysia,1.47725,103.652,80000401,http://otp.transitos.io/otpws/api/cities/2/index/stops/1:80000401,0,
80011322,11322,PERSIARAN INDAH (2),BA:PERSIARAN INDAH (2),1.47779,103.65061,80011322,http://otp.transitos.io/otpws/api/cities/2/index/stops/1:80011322,0,
80000397,00397,PERSIARAN INDAH (3),Jalan Persiaran Indah Utama- Johor Nusa Idaman- Malaysia Johor- Malaysia,1.479,103.65006,80000397,http://otp.transitos.io/otpws/api/cities/2/index/stops/1:80000397,0,
80000470,00470,Petronas Bkt Indah Persiaran Indah Utama,Jalan Persiaran Indah Utama- Johor Taman Nusa Bestari Jaya- Malaysia Johor- Malaysia,1.48416,103.64853,80000470,http://otp.transitos.io/otpws/api/cities/2/index/stops/1:80000470,0,
80011327,11327,PERSIARAN INDAH UTAMA,BA:PERSIARAN INDAH UTAMA,1.48677,103.65095,80011327,http://otp.transitos.io/otpws/api/cities/2/index/stops/1:80011327,0,
80000597,00597,JALAN INDAH 1/14 - 1/20,Jalan Persiaran Indah Utama- Johor Taman Jaya Emas- Malaysia Johor- Malaysia,1.48848,103.654,80000597,http://otp.transitos.io/otpws/api/cities/2/index/stops/1:80000597,0,
80011329,11329,JALAN INDAH 2/1 - 2/11,BA:JALAN INDAH 2/1 - 2/11,1.48812,103.65657,80011329,http://otp.transitos.io/otpws/api/cities/2/index/stops/1:80011329,0,
80000595,00595,SIMPANG JALAN INDAH 1/10,Jalan Persiaran Indah Utama- Johor Taman Nusa Bestari Jaya- Malaysia Johor- Malaysia,1.48791,103.661,80000595,http://otp.transitos.io/otpws/api/cities/2/index/stops/1:80000595,0,
80007570,07570,TAMAN NUSA BESTARI 3,Jalan Sutera Danga- Johor Taman Nusa Bestari Jaya- Malaysia Johor- Malaysia,1.49319,103.65743,80007570,http://otp.transitos.io/otpws/api/cities/2/index/stops/1:80007570,0,
80008117,08117,HAB TAMAN TAN SRI YAACOB,No results No results Johor,1.49726,103.65983,80008117,http://otp.transitos.io/otpws/api/cities/2/index/stops/1:80008117,0,
80007569,07569,Opp TAMAN NUSA BESTARI 3,Jalan Sutera Danga- Johor Taman Nusa Bestari Jaya- Malaysia Johor- Malaysia,1.49334,103.65753,80007569,http://otp.transitos.io/otpws/api/cities/2/index/stops/1:80007569,0,
80000594,00594,Opp SIMPANG JALAN INDAH 1/10,Jalan Indah 1/13- Johor Bandar Baru Uda Utama- Malaysia Johor- Malaysia,1.48781,103.66101,80000594,http://otp.transitos.io/otpws/api/cities/2/index/stops/1:80000594,0,
80011328,11328,Opp JALAN INDAH 2/1 - 2/11,BA:Opp JALAN INDAH 2/1 - 2/11,1.488,103.65658,80011328,http://otp.transitos.io/otpws/api/cities/2/index/stops/1:80011328,0,
80000596,00596,Opp JALAN INDAH 1/14 - 1/20,Jalan Persiaran Indah Utama- Johor Taman Jaya Emas- Malaysia Johor- Malaysia,1.48837,103.654,80000596,http://otp.transitos.io/otpws/api/cities/2/index/stops/1:80000596,0,
80000599,00599,Opp PERSIARAN INDAH UTAMA,Jalan Indah 1/21- Johor Taman Nusa Jaya- Malaysia Johor- Malaysia,1.4864,103.65081,80000599,http://otp.transitos.io/otpws/api/cities/2/index/stops/1:80000599,0,
80000469,00469,Opp Petronas Bkt Indah 1,Jalan Persiaran Indah Utama- Johor Taman Jaya Emas- Malaysia Johor- Malaysia,1.48418,103.64871,80000469,http://otp.transitos.io/otpws/api/cities/2/index/stops/1:80000469,0,
80000396,00396,Opp PERSIARAN INDAH (3),Jalan Persiaran Indah Utama- Johor Nusa Idaman- Malaysia Johor- Malaysia,1.47927,103.65012,80000396,http://otp.transitos.io/otpws/api/cities/2/index/stops/1:80000396,0,
80011323,11323,Opp PERSIARAN INDAH (2),BA:Opp PERSIARAN INDAH (2),1.47769,103.65077,80011323,http://otp.transitos.io/otpws/api/cities/2/index/stops/1:80011323,0,
80000400,00400,BUKIT INDAH 2,Jalan Indah 10/13- Johor Nusa Idaman- Malaysia Johor- Malaysia,1.47744,103.65205,80000400,http://otp.transitos.io/otpws/api/cities/2/index/stops/1:80000400,0,
80011321,11321,Opp PERSIARAN INDAH (1),BA:Opp PERSIARAN INDAH (1),1.47871,103.65565,80011321,http://otp.transitos.io/otpws/api/cities/2/index/stops/1:80011321,0,
80000012,00012,AEON Bukit Indah,Jalan Indah 15/2- Johor Taman Amira- Malaysia Johor- Malaysia,1.48102,103.65695,80000012,http://otp.transitos.io/otpws/api/cities/2/index/stops/1:80000012,0,
80011319,11319,Lotus Bukit Indah,BA:Lotus Bukit Indah,1.48173,103.6618,80011319,http://otp.transitos.io/otpws/api/cities/2/index/stops/1:80011319,0,
80000388,00388,Opp AmBank Bukit Indah,Jalan Persiaran Perling 2- Johor Kampung Tuah Jaya- Malaysia Johor- Malaysia,1.4816,103.664,80000388,http://otp.transitos.io/otpws/api/cities/2/index/stops/1:80000388,0,
80011331,11331,Opp 7-ELEVEN BUKIT INDAH,BA:Opp 7-ELEVEN BUKIT INDAH,1.48086,103.66502,80011331,http://otp.transitos.io/otpws/api/cities/2/index/stops/1:80011331,0,
80000610,00610,Opp Petronas Bukit Indah,Jalan Persiaran Perling 2- Johor Kampung Tuah Jaya- Malaysia Johor- Malaysia,1.47561,103.66595,80000610,http://otp.transitos.io/otpws/api/cities/2/index/stops/1:80000610,0,
80000606,00606,Opp SK Taman Perling 3,Jalan Persiaran Perling 2- Johor Kampung Tuah Jaya- Malaysia Johor- Malaysia,1.4731,103.672,80000606,http://otp.transitos.io/otpws/api/cities/2/index/stops/1:80000606,0,
80000607,00607,Opp JALAN ISMAIL SULTAN,Jalan Layang 16- Johor Kampung Tuah Jaya- Malaysia Johor- Malaysia,1.47296,103.67717,80000607,http://otp.transitos.io/otpws/api/cities/2/index/stops/1:80000607,0,
80000383,00383,Opp Perling Heights,Jalan Persiaran Perling 1- Johor Taman Sutera- Malaysia Johor- Malaysia,1.47431,103.6787,80000383,http://otp.transitos.io/otpws/api/cities/2/index/stops/1:80000383,0,
80000377,00377,Caltex Taman Perling,Jalan Persiaran Perling 1- Johor Taman Sutera- Malaysia Johor- Malaysia,1.47645,103.68007,80000377,http://otp.transitos.io/otpws/api/cities/2/index/stops/1:80000377,0,
80011315,11315,Shell Taman Perling,BA:Shell Taman Perling,1.47963,103.68308,80011315,http://otp.transitos.io/otpws/api/cities/2/index/stops/1:80011315,0,
80000375,00375,Perling Apartment,Jalan Persiaran Perling 1- Johor Taman Sutera- Malaysia Johor- Malaysia,1.48222,103.68531,80000375,http://otp.transitos.io/otpws/api/cities/2/index/stops/1:80000375,0,
80011313,11313,Dewan Raya Taman Perling,BA:Dewan Raya Taman Perling,1.484,103.68659,80011313,http://otp.transitos.io/otpws/api/cities/2/index/stops/1:80011313,0,
80011312,11312,Opp Simpang Jalan Sutera,BA:Opp Simpang Jalan Sutera,1.48531,103.68704,80011312,http://otp.transitos.io/otpws/api/cities/2/index/stops/1:80011312,0,
80011309,11309,Simpang Jalan Belibis,BA:Simpang Jalan Belibis,1.48733,103.68676,80011309,http://otp.transitos.io/otpws/api/cities/2/index/stops/1:80011309,0,
80000611,00611,Opp Surau Al Hidayah,Jalan Persiaran Perling 1- Johor Taman Sutera- Malaysia Johor- Malaysia,1.48939,103.68639,80000611,http://otp.transitos.io/otpws/api/cities/2/index/stops/1:80000611,0,
80011308,11308,Persisiran Perling 1,BA:Persisiran Perling 1,1.49171,103.68597,80011308,http://otp.transitos.io/otpws/api/cities/2/index/stops/1:80011308,0,
80011306,11306,SK TAMAN PERLING,BA:SK TAMAN PERLING,1.4946,103.68442,80011306,http://otp.transitos.io/otpws/api/cities/2/index/stops/1:80011306,0,
80000371,00371,SJK (C) PEI HWA / MASJID TAMAN PERLING,Jalan Pucung 1- Johor Kampung Teluk Serdang- Malaysia Johor- Malaysia,1.49568,103.68334,80000371,http://otp.transitos.io/otpws/api/cities/2/index/stops/1:80000371,0,
80007584,07584,Opp Medan Selera Perling,Jalan Persisiran Perling- Johor Kampung Teluk Serdang Pinggir- Malaysia Johor- Malaysia,1.49791,103.68107,80007584,http://otp.transitos.io/otpws/api/cities/2/index/stops/1:80007584,0,
80011372,11372,Tampoi Indah,BA:Tampoi Indah,1.50184,103.68504,80011372,http://otp.transitos.io/otpws/api/cities/2/index/stops/1:80011372,0,
80007582,07582,Opp Petronas Tampoi Utama,Jalan Sri Perkasa 2/16- Johor Taman Tampoi Utama- Malaysia Johor- Malaysia,1.50212,103.68712,80007582,http://otp.transitos.io/otpws/api/cities/2/index/stops/1:80007582,0,
80007599,07599,Burger King,Jalan Tun Abdul Razak- Johor Taman Tasek- Malaysia Johor- Malaysia,1.48856,103.72768,80007599,http://otp.transitos.io/otpws/api/cities/2/index/stops/1:80007599,0,
80007596,07596,Opp Taman Tasek,Jalan Tun Abdul Razak- Johor Taman Tasek- Malaysia Johor- Malaysia,1.48677,103.72432,80007596,http://otp.transitos.io/otpws/api/cities/2/index/stops/1:80007596,0,
80011336,11336,SJK KUO KUANG,BA:SJK KUO KUANG,1.52824,103.66904,80011336,http://otp.transitos.io/otpws/api/cities/2/index/stops/1:80011336,0,
80011358,11358,OPP CALTEX TASEK SENTRAL,BA:OPP CALTEX TASEK SENTRAL,1.51283,103.65683,80011358,http://otp.transitos.io/otpws/api/cities/2/index/stops/1:80011358,0,
80000443,00443,SEKOLAH AGAMA TUTA,Jalan Perkasa 1- Johor Taman Damai Jaya- Malaysia Johor- Malaysia,1.50783,103.65202,80000443,http://otp.transitos.io/otpws/api/cities/2/index/stops/1:80000443,0,
80000446,00446,SJK (T) TUTA,Jalan Perkasa 1- Johor Taman Damai Jaya- Malaysia Johor- Malaysia,1.50913,103.64846,80000446,http://otp.transitos.io/otpws/api/cities/2/index/stops/1:80000446,0,
80010112,10112,2N Shop Jalan Hang Jebat,BA:2N Shop Jalan Hang Jebat,1.51193,103.6455,80010112,http://otp.transitos.io/otpws/api/cities/2/index/stops/1:80010112,0,
80000450,00450,Opp 7 ELEVEN SRI ORKID,Jalan Hang Jebat- Johor Taman Sri Orkid- Malaysia Johor- Malaysia,1.5103,103.64242,80000450,http://otp.transitos.io/otpws/api/cities/2/index/stops/1:80000450,0,
80011337,11337,TAMAN PERMAINAN TAMAN SRI ORKID,BA:TAMAN PERMAINAN TAMAN SRI ORKID,1.51099,103.63978,80011337,http://otp.transitos.io/otpws/api/cities/2/index/stops/1:80011337,0,
80008481,08481,Jalan Sri Orkid 33,Jalan Hang Lekir Jalan Hang Lekir Johor,1.50781,103.63747,80008481,http://otp.transitos.io/otpws/api/cities/2/index/stops/1:80008481,0,
80000629,00629,Hutan Bandar MPJBT,Jalan Seri Orkid- Johor Taman Sri Orkid- Malaysia Johor- Malaysia,1.51239,103.63353,80000629,http://otp.transitos.io/otpws/api/cities/2/index/stops/1:80000629,0,
80011338,11338,JALAN SKUDAI-GELANG PATAH / LOTUS MUTIAR,BA:JALAN SKUDAI-GELANG PATAH / LOTUS MUTIAR,1.51301463347767,103.631503337211,80011338,http://otp.transitos.io/otpws/api/cities/2/index/stops/1:80011338,0,
80011339,11339,MASJID KG MELAYU LIMA KEDAI,BA:MASJID KG MELAYU LIMA KEDAI,1.5069,103.62547,80011339,http://otp.transitos.io/otpws/api/cities/2/index/stops/1:80011339,0,
80000457,00457,Opp PERUMAHAN RAKYAT LIMA KEDAI,Jalan Gelang Patah-Skudai- Johor Taman Melawati- Malaysia Johor- Malaysia,1.5043,103.62211,80000457,http://otp.transitos.io/otpws/api/cities/2/index/stops/1:80000457,0,
80011360,11360,SURAU NUR HIDAYAH,BA:SURAU NUR HIDAYAH,1.50041,103.61828,80011360,http://otp.transitos.io/otpws/api/cities/2/index/stops/1:80011360,0,
80000461,00461,JALAN BESTARI,Jalan Gelang Patah-Skudai- Johor Taman Melawati- Malaysia Johor- Malaysia,1.49561,103.61642,80000461,http://otp.transitos.io/otpws/api/cities/2/index/stops/1:80000461,0,
80011340,11340,STADIUM SULTAN IBRAHIM,BA:STADIUM SULTAN IBRAHIM,1.48249,103.61547,80011340,http://otp.transitos.io/otpws/api/cities/2/index/stops/1:80011340,0,
80000631,00631,Opp Rumah Rakyat Iskandar,Jalan Gelang Patah-Skudai- Johor Taman Melawati- Malaysia Johor- Malaysia,1.4772,103.61496,80000631,http://otp.transitos.io/otpws/api/cities/2/index/stops/1:80000631,0,
80011341,11341,NUSA SENTRAL 1 B.STOP,BA:NUSA SENTRAL 1 B.STOP,1.4696966366725628,103.61641993088892,80011341,http://otp.transitos.io/otpws/api/cities/2/index/stops/1:80011341,0,
80008488,08488,Nusa Sentral 2 B. Stop,Jalan Skudai -  Gelang Patah Restoran M A Deen Johor- Malaysia,1.46828,103.61654,80008488,http://otp.transitos.io/otpws/api/cities/2/index/stops/1:80008488,0,
80011342,11342,68 AVENUE,BA:68 AVENUE,1.4527687336023059,103.59882698609323,80011342,http://otp.transitos.io/otpws/api/cities/2/index/stops/1:80011342,0,
80000520,00520,Opp Petronas Nusa Perintis,Jalan Gelang Patah-Skudai- Johor Jalan Nusa Perintis Johor- Malaysia,1.45058,103.59523,80000520,http://otp.transitos.io/otpws/api/cities/2/index/stops/1:80000520,0,
80000522,00522,CIMB GELANG PATAH,Jalan Gelang Patah-Skudai- Johor Medan Nusa Perintis Johor- Malaysia,1.45081,103.594,80000522,http://otp.transitos.io/otpws/api/cities/2/index/stops/1:80000522,0,
80000524,00524,SMK Gelang Patah,Jalan Gelang Patah-Skudai- Johor Jalan NusaPerintis Johor- Malaysia,1.44983,103.59106,80000524,http://otp.transitos.io/otpws/api/cities/2/index/stops/1:80000524,0,
80011343,11343,PEJABAT POS GELANG PATAH,BA:PEJABAT POS GELANG PATAH,1.44855,103.59053,80011343,http://otp.transitos.io/otpws/api/cities/2/index/stops/1:80011343,0,
80000302,00302,Terminal Gelang Patah,No results Gelang Patah Nusajaya,1.4468,103.58976,80000302,http://otp.transitos.io/otpws/api/cities/2/index/stops/1:80000302,0,
80002912,02912,BALAI POLIS GELANG PATAH,Jalan Gelang Patah-Ulu Choh- Johor Nusaria Johor- Malaysia,1.44739,103.58768,80002912,http://otp.transitos.io/otpws/api/cities/2/index/stops/1:80002912,0,
80002889,02889,Selera Kampung Melayu,JALAN ULU CHOH JALAN ULU CHOH 03 Johor,1.45172,103.58511,80002889,http://otp.transitos.io/otpws/api/cities/2/index/stops/1:80002889,0,
80008545,08545,Maybank Taman Nusantara,BA:Maybank Taman Nusantara,1.46231,103.58423,80008545,http://otp.transitos.io/otpws/api/cities/2/index/stops/1:80008545,0,
80011344,11344,DOMINOS TAMAN NUSANTARA,BA:DOMINOS TAMAN NUSANTARA,1.4711004033083,103.584793102038,80011344,http://otp.transitos.io/otpws/api/cities/2/index/stops/1:80011344,0,
80007852,07852,GP Sentral,Jalan Gelang Patah-Ulu Choh- Johor Ulu Pulai Johor- Malaysia,1.47861,103.58321,80007852,http://otp.transitos.io/otpws/api/cities/2/index/stops/1:80007852,0,
80011345,11345,OPP DOMINO TAMAN NUSANTARA,BA:OPP DOMINO TAMAN NUSANTARA,1.4717041476809705,103.58520878413884,80011345,http://otp.transitos.io/otpws/api/cities/2/index/stops/1:80011345,0,
80008546,08546,Opp Maybank Taman Nusantara,BA:Opp Maybank Taman Nusantara,1.4616,103.58466,80008546,http://otp.transitos.io/otpws/api/cities/2/index/stops/1:80008546,0,
80002888,02888,Opp Selera Kampung Melayu,Jalan Gelang Patah-Ulu Choh- Malaysia Jalan Nusa Perintis  Johor- Malaysia,1.45239,103.5852,80002888,http://otp.transitos.io/otpws/api/cities/2/index/stops/1:80002888,0,
80011346,11346,OPP BALAI POLIS GELANG PATAH,BA:OPP BALAI POLIS GELANG PATAH,1.44752,103.58779,80011346,http://otp.transitos.io/otpws/api/cities/2/index/stops/1:80011346,0,
80011347,11347,OPP PEJABAT POS GELANG PATAH,BA:OPP PEJABAT POS GELANG PATAH,1.44856,103.59043,80011347,http://otp.transitos.io/otpws/api/cities/2/index/stops/1:80011347,0,
80006517,06517,Opp SMK Gelang Patah,Jalan Gelang Patah-Skudai- Johor Gelang Patah Johor- Malaysia,1.44931,103.59066,80006517,http://otp.transitos.io/otpws/api/cities/2/index/stops/1:80006517,0,
80000521,00521,Opp CIMB GELANG PATAH,Jalan Gelang Patah-Skudai- Johor Jalan Nusa Perintis Johor- Malaysia,1.45091,103.59426,80000521,http://otp.transitos.io/otpws/api/cities/2/index/stops/1:80000521,0,
80011359,11359,PETRONAS NUSA PERINTIS,BA:PETRONAS NUSA PERINTIS,1.45088,103.59521,80011359,http://otp.transitos.io/otpws/api/cities/2/index/stops/1:80011359,0,
80011348,11348,OPP 68 AVENUE,BA:OPP 68 AVENUE,1.45298,103.59857,80011348,http://otp.transitos.io/otpws/api/cities/2/index/stops/1:80011348,0,
80008489,08489,OPP Nusa Sentral 2 Bus Stop,Jalan Gelang Patah  Restoran M A Deen Johor- Malaysia,1.46834,103.61644,80008489,http://otp.transitos.io/otpws/api/cities/2/index/stops/1:80008489,0,
80011349,11349,OPP NUSA SENTRAL 1 B.STOP,BA:OPP NUSA SENTRAL 1 B.STOP,1.46968,103.61611,80011349,http://otp.transitos.io/otpws/api/cities/2/index/stops/1:80011349,0,
80000632,00632,Rumah Rakyat Iskandar,Jalan Gelang Patah-Skudai- Johor Taman Melawati- Malaysia Johor- Malaysia,1.47724,103.61476,80000632,http://otp.transitos.io/otpws/api/cities/2/index/stops/1:80000632,0,
80011350,11350,OPP STADIUM SULTAN IBRAHIM,BA:OPP STADIUM SULTAN IBRAHIM,1.482159253765107,103.61515951194475,80011350,http://otp.transitos.io/otpws/api/cities/2/index/stops/1:80011350,0,
80000462,00462,OPP JALAN BESTARI,Jalan Gelang Patah-Skudai- Johor Taman Melawati- Malaysia Johor- Malaysia,1.49566,103.61615,80000462,http://otp.transitos.io/otpws/api/cities/2/index/stops/1:80000462,0,
80000459,00459,Opp Surau Nur Hidayah,Jalan Gelang Patah-Skudai- Johor Taman Melawati- Malaysia Johor- Malaysia,1.50059,103.61805,80000459,http://otp.transitos.io/otpws/api/cities/2/index/stops/1:80000459,0,
80006558,06558,PERUMAHAN RAKYAT LIMA KEDAI,Jalan Gelang Patah-Skudai- Johor Taman Melawati- Malaysia Johor- Malaysia,1.50418,103.62169,80006558,http://otp.transitos.io/otpws/api/cities/2/index/stops/1:80006558,0,
80011352,11352,OPP MASJID KG MELAYU LIMA KEDAI,BA:OPP MASJID KG MELAYU LIMA KEDAI,1.50719,103.62545,80011352,http://otp.transitos.io/otpws/api/cities/2/index/stops/1:80011352,0,
80011353,11353,OPP JALAN SKUDAI-GELANG PATAH / LOTUS MU,BA:OPP JALAN SKUDAI-GELANG PATAH / LOTUS MU,1.51298792394617,103.631228791792,80011353,http://otp.transitos.io/otpws/api/cities/2/index/stops/1:80011353,0,
80008480,08480,Opp Hutan Bandar MPJBT,jalan persiaran mutiara mas jalan persiaran mutiara mas Johor,1.51305,103.63318,80008480,http://otp.transitos.io/otpws/api/cities/2/index/stops/1:80008480,0,
80011354,11354,TAMAN SRI ORKID,BA:TAMAN SRI ORKID,1.509502483226149,103.63720025085274,80011354,http://otp.transitos.io/otpws/api/cities/2/index/stops/1:80011354,0,
80010110,10110,Petronas Sri Orkid,BA:Petronas Sri Orkid,1.50751,103.63973,80010110,http://otp.transitos.io/otpws/api/cities/2/index/stops/1:80010110,0,
80000451,00451,7 ELEVEN SRI ORKID,Jalan Hang Jebat- Johor Taman Sri Orkid- Malaysia Johor- Malaysia,1.51017,103.64219,80000451,http://otp.transitos.io/otpws/api/cities/2/index/stops/1:80000451,0,
80011355,11355,PANGSAPURI JASA,BA:PANGSAPURI JASA,1.5121631130543285,103.64402175950329,80011355,http://otp.transitos.io/otpws/api/cities/2/index/stops/1:80011355,0,
80011356,11356,OPP 2N SHOP JALAN HANG JEBAT,BA:OPP 2N SHOP JALAN HANG JEBAT,1.51202,103.64548,80011356,http://otp.transitos.io/otpws/api/cities/2/index/stops/1:80011356,0,
80000444,00444,OPP SEKOLAH AGAMA TUTA,Jalan Perkasa 1- Johor Taman Damai Jaya- Malaysia Johor- Malaysia,1.50759,103.65168,80000444,http://otp.transitos.io/otpws/api/cities/2/index/stops/1:80000444,0,
80011361,11361,BLOK 58,BA:BLOK 58,1.50866727564498,103.651893131148,80011361,http://otp.transitos.io/otpws/api/cities/2/index/stops/1:80011361,0,
80006537,06537,Shell Tun Aminah,Jalan Tun Aminah- Johor Taman Tun Aminah- Malaysia Johor- Malaysia,1.52242,103.66333,80006537,http://otp.transitos.io/otpws/api/cities/2/index/stops/1:80006537,0,
80007597,07597,Taman Tasek,Jalan Tun Abdul Razak- Johor Taman Tasek- Malaysia Johor- Malaysia,1.4872,103.72468,80007597,http://otp.transitos.io/otpws/api/cities/2/index/stops/1:80007597,0,
80007598,07598,Opp Burger King,Jalan Tun Abdul Razak- Johor Taman Tasek- Malaysia Johor- Malaysia,1.48875,103.72764,80007598,http://otp.transitos.io/otpws/api/cities/2/index/stops/1:80007598,0,
80004201,04201,Kampung Melayu Muafakat,Jalan Pendas Laut- Johor Jalan Jerantas Johor- Malaysia,1.44372,103.59126,80004201,http://otp.transitos.io/otpws/api/cities/2/index/stops/1:80004201,0,
80004203,04203,Kilang Nishinihon,Jalan Pendas Laut- Johor Persiaran Ledang Johor- Malaysia,1.43387,103.59015,80004203,http://otp.transitos.io/otpws/api/cities/2/index/stops/1:80004203,0,
80011566,11566,Aspira Square,BA:Aspira Square,1.4203307890303212,103.5940301540909,80011566,http://otp.transitos.io/otpws/api/cities/2/index/stops/1:80011566,0,
80004211,04211,Kampung Bukit Kecil,Jalan Tanjung Kupang- Johor Ledang Heights- Malaysia Johor- Malaysia,1.39212,103.59031,80004211,http://otp.transitos.io/otpws/api/cities/2/index/stops/1:80004211,0,
80004212,04212,Kampung Paya Mengkuang,Jalan Tanjung Kupang- Johor Jalan Duku Kiri Baru Johor- Malaysia,1.38623,103.58371,80004212,http://otp.transitos.io/otpws/api/cities/2/index/stops/1:80004212,0,
80004215,04215,Kampung Tiram Duku,Jalan Tanjung Kupang- Johor Jalan Duku Kiri Baru Johor- Malaysia,1.38434,103.58133,80004215,http://otp.transitos.io/otpws/api/cities/2/index/stops/1:80004215,0,
80004223,04223,Kampung Tiram Duku 2,Jalan Tanjung Kupang- Johor Jalan Duku Kiri Baru Johor- Malaysia,1.3862,103.57669,80004223,http://otp.transitos.io/otpws/api/cities/2/index/stops/1:80004223,0,
80004229,04229,Opp GIAT MARA,Jalan Tanjung Kupang- Johor Jalan Duku Kiri Baru Johor- Malaysia,1.382,103.56702,80004229,http://otp.transitos.io/otpws/api/cities/2/index/stops/1:80004229,0,
80004233,04233,SK Tiram Duku,Jalan Tanjung Kupang- Johor Jalan Tanjung Johor- Malaysia,1.38167,103.56583,80004233,http://otp.transitos.io/otpws/api/cities/2/index/stops/1:80004233,0,
80004234,04234,Simpang PTP,Jalan Tanjung Kupang- Johor Jalan Tanjung  Johor- Malaysia,1.37767,103.56101,80004234,http://otp.transitos.io/otpws/api/cities/2/index/stops/1:80004234,0,
80011564,11564,I - Park,BA:I - Park,1.36865212199267,103.564218289585,80011564,http://otp.transitos.io/otpws/api/cities/2/index/stops/1:80011564,0,
80011563,11563,Hostel PTP,BA:Hostel PTP,1.3614916758700675,103.55605771057236,80011563,http://otp.transitos.io/otpws/api/cities/2/index/stops/1:80011563,0,
80004239,04239,Masjid Al Muhamadi Kampung Pekajang,Jalan Tanjung Kupang- Johor Jalan Tanjung Johor- Malaysia,1.36921,103.55832,80004239,http://otp.transitos.io/otpws/api/cities/2/index/stops/1:80004239,0,
80011562,11562,Kampung Pekajang,BA:Kampung Pekajang,1.3590311861405275,103.56046891304138,80011562,http://otp.transitos.io/otpws/api/cities/2/index/stops/1:80011562,0,
80004253,04253,SK Tanjung Adang,Jalan Tanjung Kupang- Johor Jalan Tanjung Johor- Malaysia,1.35356,103.56644,80004253,http://otp.transitos.io/otpws/api/cities/2/index/stops/1:80004253,0,
80004258,04258,Opp Saujana Seafood,Jalan Gelang Patah-Skudai- Malaysia Jalan Mustapha Johor- Malaysia,1.35224,103.57165,80004258,http://otp.transitos.io/otpws/api/cities/2/index/stops/1:80004258,0,
80004271,04271,Kampung Pok,Jalan Sembilang- Johor Jalan Tanjung Johor- Malaysia,1.35757,103.58028,80004271,http://otp.transitos.io/otpws/api/cities/2/index/stops/1:80004271,0,
80004272,04272,Kampung Pok Besar,Jalan Mustapha- Johor Jalan Sembilang Johor- Malaysia,1.3583,103.58216,80004272,http://otp.transitos.io/otpws/api/cities/2/index/stops/1:80004272,0,
80011561,11561,Sekolah Agama Kenangan Murni Kampung Pok,BA:Sekolah Agama Kenangan Murni Kampung Pok,1.35990146375385,103.586304230186,80011561,http://otp.transitos.io/otpws/api/cities/2/index/stops/1:80011561,0,
80011567,11567,Opp SK Murni Pok,BA:Opp SK Murni Pok,1.3602483527141052,103.58721388851282,80011567,http://otp.transitos.io/otpws/api/cities/2/index/stops/1:80011567,0,
80004285,04285,Jeti Kampung Pok,Jalan Tanjung Kupang- Johor Jalan Sembilang Johor- Malaysia,1.36012,103.59131,80004285,http://otp.transitos.io/otpws/api/cities/2/index/stops/1:80004285,0,
80011560,11560,Pusat Komuniti Desa Pok,BA:Pusat Komuniti Desa Pok,1.354743639374179,103.59462484685139,80011560,http://otp.transitos.io/otpws/api/cities/2/index/stops/1:80011560,0,
80011559,11559,Kampung Tanjung Kupang,BA:Kampung Tanjung Kupang,1.3511986661526,103.600168092956,80011559,http://otp.transitos.io/otpws/api/cities/2/index/stops/1:80011559,0,
80004288,04288,Warung Santai Cik Ton,Jalan Tanjung Kupang- Johor Jalan Sembilang Johor- Malaysia,1.35591,103.60771,80004288,http://otp.transitos.io/otpws/api/cities/2/index/stops/1:80004288,0,
80004292,04292,SK TG Kupang,Jalan Tanjung Kupang- Johor Jalan Sembilang Johor- Malaysia,1.3595,103.61238,80004292,http://otp.transitos.io/otpws/api/cities/2/index/stops/1:80004292,0,
80004296,04296,Kampung Ladang ,Jalan Tanjung Kupang- Johor Jalan Sembilang Johor- Malaysia,1.36596,103.61968,80004296,http://otp.transitos.io/otpws/api/cities/2/index/stops/1:80004296,0,
80004298,04298,Kampung Ladang 2,Jalan Tanjung Kupang- Johor Jalan Sembilang Johor- Malaysia,1.36983,103.62503,80004298,http://otp.transitos.io/otpws/api/cities/2/index/stops/1:80004298,0,
80004299,04299,Warung Rosalina Kampung Ladang,Jalan Tanjung Kupang- Johor Jalan Sembilang Johor- Malaysia,1.37327,103.62832,80004299,http://otp.transitos.io/otpws/api/cities/2/index/stops/1:80004299,0,
80004302,04302,Kampung Pendas Baru,Jalan Tanjung Kupang- Johor Jalan Sembilang Johor- Malaysia,1.37868,103.63418,80004302,http://otp.transitos.io/otpws/api/cities/2/index/stops/1:80004302,0,
80004278,04278,SK Murni Pok,Jalan Tanjung Kupang- Johor Jalan Sembilang Johor- Malaysia,1.35996,103.58738,80004278,http://otp.transitos.io/otpws/api/cities/2/index/stops/1:80004278,0,
80004260,04260,Saujana Seafood,Jalan Siakap- Johor Jalan Tanjung Johor- Malaysia,1.35192,103.57108,80004260,http://otp.transitos.io/otpws/api/cities/2/index/stops/1:80004260,0,
80004250,04250,Opp SK Tanjung Adang,Jalan Tanjung Kupang- Johor Jalan Tanjung Johor- Malaysia,1.35319,103.56495,80004250,http://otp.transitos.io/otpws/api/cities/2/index/stops/1:80004250,0,
80004231,04231,Opp SK Tiram Duku,Jalan Tanjung Kupang- Johor Jalan Tanjung Johor- Malaysia,1.38183,103.56577,80004231,http://otp.transitos.io/otpws/api/cities/2/index/stops/1:80004231,0,
80011565,11565,GIAT MARA,BA:GIAT MARA,1.3821665853917304,103.56708569916479,80011565,http://otp.transitos.io/otpws/api/cities/2/index/stops/1:80011565,0,
80004204,04204,Opp Kilang Nishinihon,Jalan Pendas Laut- Johor Persiaran Ledang Johor- Malaysia,1.43396,103.58985,80004204,http://otp.transitos.io/otpws/api/cities/2/index/stops/1:80004204,0,
80011277,11277,Sg Danga,BA:Sg Danga,1.47019,103.69172,80011277,http://otp.transitos.io/otpws/api/cities/2/index/stops/1:80011277,0,
80011557,11557,Taman D Utama,BA:Taman D Utama,1.47107,103.68612,80011557,http://otp.transitos.io/otpws/api/cities/2/index/stops/1:80011557,0,
80000402,00402,Bus Stop Petron Bukit Indah,Bukit Indah Highway- Johor Taman Amira- Malaysia Johor- Malaysia,1.47045,103.65377,80000402,http://otp.transitos.io/otpws/api/cities/2/index/stops/1:80000402,0,
80000404,00404,Indah Court Apartment,Bukit Indah Highway- Johor Taman Amira- Malaysia Johor- Malaysia,1.46703,103.65325,80000404,http://otp.transitos.io/otpws/api/cities/2/index/stops/1:80000404,0,
80000603,00603,Opp Nusa Idaman,Bukit Indah Highway- Johor Taman Amira- Malaysia Johor- Malaysia,1.46565,103.65304,80000603,http://otp.transitos.io/otpws/api/cities/2/index/stops/1:80000603,0,
80011648,11648,Opp Horizon Hills,BA:Opp Horizon Hills,1.46112,103.6524,80011648,http://otp.transitos.io/otpws/api/cities/2/index/stops/1:80011648,0,
80005504,05504,Opp Legoland,Legoland Malaysia Interchange- Johor East Ledang- Malaysia Johor- Malaysia,1.42762,103.63418,80005504,http://otp.transitos.io/otpws/api/cities/2/index/stops/1:80005504,0,
80011279,11279,Lebuh Medini Utama,BA:Lebuh Medini Utama,1.42295,103.63257,80011279,http://otp.transitos.io/otpws/api/cities/2/index/stops/1:80011279,0,
80013345,13345,Opp Ramada,BA:Opp Ramada,1.42089,103.63113,80013345,http://otp.transitos.io/otpws/api/cities/2/index/stops/1:80013345,0,
80010460,10460,1 Medini Hub,BA:1 Medini Hub,1.4193,103.63671,80010460,http://otp.transitos.io/otpws/api/cities/2/index/stops/1:80010460,0,
80002911,02911,Persiaran Laksamana,Nusajaya Highway- Johor Kota Iskandar- Malaysia Johor- Malaysia,1.41894,103.64826,80002911,http://otp.transitos.io/otpws/api/cities/2/index/stops/1:80002911,0,
80011281,11281,Puteri Harbour,BA:Puteri Harbour,1.41688,103.65638,80011281,http://otp.transitos.io/otpws/api/cities/2/index/stops/1:80011281,0,
80007723,07723,Puteri Harbour Ferry Terminal,Persiaran Puteri Selatan- Johor Kota Iskandar- Malaysia Johor- Malaysia,1.4142,103.6599,80007723,http://otp.transitos.io/otpws/api/cities/2/index/stops/1:80007723,0,
80010093,10093,Fraser Place,BA:Fraser Place,1.413472,103.654806,80010093,http://otp.transitos.io/otpws/api/cities/2/index/stops/1:80010093,0,
80010094,10094,Teega Suits,BA:Teega Suits,1.414111,103.653056,80010094,http://otp.transitos.io/otpws/api/cities/2/index/stops/1:80010094,0,
80010095,10095,Opp Persiaran Laksamana,BA:Opp Persiaran Laksamana,1.41864,103.64858,80010095,http://otp.transitos.io/otpws/api/cities/2/index/stops/1:80010095,0,
80013343,13343,Opp Medini Hub,BA:Opp Medini Hub,1.41915,103.63666,80013343,http://otp.transitos.io/otpws/api/cities/2/index/stops/1:80013343,0,
80013344,13344,Ramada,BA:Ramada,1.42118,103.63101,80013344,http://otp.transitos.io/otpws/api/cities/2/index/stops/1:80013344,0,
80011280,11280,Opp Lebuh Medini Utama,BA:Opp Lebuh Medini Utama,1.42306,103.6324,80011280,http://otp.transitos.io/otpws/api/cities/2/index/stops/1:80011280,0,
80005505,05505,Legoland,Jalan Legoland- Johor East Ledang- Malaysia Johor- Malaysia,1.42782,103.63396,80005505,http://otp.transitos.io/otpws/api/cities/2/index/stops/1:80005505,0,
80011658,11658,Horizon Hills,BA:Horizon Hills,1.46013,103.65217,80011658,http://otp.transitos.io/otpws/api/cities/2/index/stops/1:80011658,0,
80013342,13342,Nusa Idaman,BA:Nusa Idaman,1.46499,103.65284,80013342,http://otp.transitos.io/otpws/api/cities/2/index/stops/1:80013342,0,
80000405,00405,Opp Indah Court Apartment,Bukit Indah Highway- Johor Taman Amira- Malaysia Johor- Malaysia,1.46759,103.65325,80000405,http://otp.transitos.io/otpws/api/cities/2/index/stops/1:80000405,0,
80000403,00403,Opp Petron Bukit Indah,Bukit Indah Highway- Johor Taman Amira- Malaysia Johor- Malaysia,1.47093,103.65375,80000403,http://otp.transitos.io/otpws/api/cities/2/index/stops/1:80000403,0,
80011556,11556,Opp Taman D Utama,BA:Opp Taman D Utama,1.47141055891541,103.685963929207,80011556,http://otp.transitos.io/otpws/api/cities/2/index/stops/1:80011556,0,
80011278,11278,Opp Sg Danga,BA:Opp Sg Danga,1.47039,103.69187,80011278,http://otp.transitos.io/otpws/api/cities/2/index/stops/1:80011278,0,
80008917,08917,Taman Sri Pulai (Lebuhraya Skudai - Pont,BA:Taman Sri Pulai (Lebuhraya Skudai - Pont,1.56255,103.61756,80008917,http://otp.transitos.io/otpws/api/cities/2/index/stops/1:80008917,0,
80011659,11659,Arked Pulai Perdana,BA:Arked Pulai Perdana,1.56488,103.61356,80011659,http://otp.transitos.io/otpws/api/cities/2/index/stops/1:80011659,0,
80011660,11660,Opp Petronas Pulai Perdana 2,BA:Opp Petronas Pulai Perdana 2,1.56687,103.59484,80011660,http://otp.transitos.io/otpws/api/cities/2/index/stops/1:80011660,0,
80011662,11662,Bandar Baru Kangkar Pulai,BA:Bandar Baru Kangkar Pulai,1.56431800827983,103.587445537663,80011662,http://otp.transitos.io/otpws/api/cities/2/index/stops/1:80011662,0,
80011663,11663,Kampung Kangkar Pulai,BA:Kampung Kangkar Pulai,1.5618548232084597,103.58333108369727,80011663,http://otp.transitos.io/otpws/api/cities/2/index/stops/1:80011663,0,
80008541,08541,Orchid Valley,BA:Orchid Valley,1.55881,103.56919,80008541,http://otp.transitos.io/otpws/api/cities/2/index/stops/1:80008541,0,
80011664,11664,Nature at Work (NURSERY),BA:Nature at Work (NURSERY),1.55656825659485,103.565425293644,80011664,http://otp.transitos.io/otpws/api/cities/2/index/stops/1:80011664,0,
80011665,11665,Taman Perindustrian Pekan Nenas,BA:Taman Perindustrian Pekan Nenas,1.4960387616082107,103.52534643928354,80011665,http://otp.transitos.io/otpws/api/cities/2/index/stops/1:80011665,0,
80000703,00703,TAMAN PERINDUSTRIAN PEKAN NENAS 1,Skudai Pontian Highway- Johor Taman Utama Johor- Malaysia,1.49718,103.52232,80000703,http://otp.transitos.io/otpws/api/cities/2/index/stops/1:80000703,0,
80000706,00706,Taman Mewah,Skudai Pontian Highway- Johor Taman Utama  Johor- Malaysia,1.4986,103.51844,80000706,http://otp.transitos.io/otpws/api/cities/2/index/stops/1:80000706,0,
80006522,06522,Opp Pekan Nenas,Skudai Pontian Highway- Johor Pontian Johor- Malaysia,1.50227,103.5173,80006522,http://otp.transitos.io/otpws/api/cities/2/index/stops/1:80006522,0,
80011666,11666,Opp BSN Pekan Nenas,BA:Opp BSN Pekan Nenas,1.50732,103.51225,80011666,http://otp.transitos.io/otpws/api/cities/2/index/stops/1:80011666,0,
80000708,00708,Hentian Jalan Besar,Skudai Pontian Highway- Johor Taman Impian Johor- Malaysia,1.50776,103.5099,80000708,http://otp.transitos.io/otpws/api/cities/2/index/stops/1:80000708,0,
80011668,11668,Medan Selera,BA:Medan Selera,1.5088571719140107,103.50717396380679,80011668,http://otp.transitos.io/otpws/api/cities/2/index/stops/1:80011668,0,
80000709,00709,Opp Dewan Serbaguna Kg Parit Pasir Baru,Skudai Pontian Highway- Johor Taman Impian Johor- Malaysia,1.50942,103.50274,80000709,http://otp.transitos.io/otpws/api/cities/2/index/stops/1:80000709,0,
80000710,00710,Opp GIATMARA TG Piai,Skudai Pontian Highway- Johor Taman Impian Johor- Malaysia,1.5102,103.49312,80000710,http://otp.transitos.io/otpws/api/cities/2/index/stops/1:80000710,0,
80011669,11669,Sekolah Agama Pengkalan Raja,BA:Sekolah Agama Pengkalan Raja,1.51685514756826,103.487313661957,80011669,http://otp.transitos.io/otpws/api/cities/2/index/stops/1:80011669,0,
80000713,00713,SK Pengkalan Raja,Skudai Pontian Highway- Johor Kampung Sawah  Johor- Malaysia,1.51798,103.48642,80000713,http://otp.transitos.io/otpws/api/cities/2/index/stops/1:80000713,0,
80000696,00696,Desa Sri Aman,Skudai Pontian Highway- Johor Kampung Sawah Johor- Malaysia,1.52065,103.48532,80000696,http://otp.transitos.io/otpws/api/cities/2/index/stops/1:80000696,0,
80006529,06529,Klinik Desa Pengkalan Raja,Skudai Pontian Highway- Johor Pontian Johor- Malaysia,1.52356,103.47752,80006529,http://otp.transitos.io/otpws/api/cities/2/index/stops/1:80006529,0,
80000715,00715,Opp Masjid Kampung Pengkalan Raja,Skudai Pontian Highway- Johor Kampung Sawah Johor- Malaysia,1.52442,103.47213,80000715,http://otp.transitos.io/otpws/api/cities/2/index/stops/1:80000715,0,
80000716,00716,OPP Bend Weld,Skudai Pontian Highway- Johor Kampung Sawah  Johor- Malaysia,1.52491,103.46414,80000716,http://otp.transitos.io/otpws/api/cities/2/index/stops/1:80000716,0,
80000717,00717,OPP KAMPUNG PARIT BARU,Skudai Pontian Highway- Johor Kampung Sawah Johor- Malaysia,1.51956,103.45351,80000717,http://otp.transitos.io/otpws/api/cities/2/index/stops/1:80000717,0,
80000718,00718,OPP Kampung Parit Selangor,Skudai Pontian Highway- Johor Kampung Sawah Johor- Malaysia,1.51496,103.44814,80000718,http://otp.transitos.io/otpws/api/cities/2/index/stops/1:80000718,0,
80011670,11670,Setia Ibarat,BA:Setia Ibarat,1.5122955383528338,103.44622084199008,80011670,http://otp.transitos.io/otpws/api/cities/2/index/stops/1:80011670,0,
80006534,06534,Mardi Pontian,Skudai Pontian Highway- Johor Pontian Johor- Malaysia,1.50885,103.44487,80006534,http://otp.transitos.io/otpws/api/cities/2/index/stops/1:80006534,0,
80006532,06532,OPP SIMPANG PARIT HAJI OTHMAN,Skudai Pontian Highway- Johor Pontian Johor- Malaysia,1.50015,103.4421,80006532,http://otp.transitos.io/otpws/api/cities/2/index/stops/1:80006532,0,
80011671,11671,KAMPUNG PINANG SARI,BA:KAMPUNG PINANG SARI,1.49588748423952,103.437177590859,80011671,http://otp.transitos.io/otpws/api/cities/2/index/stops/1:80011671,0,
80006530,06530,Opp TAMAN MUTIARA (SMK TAN SRI OTHMAN MO,Skudai Pontian Highway- Johor Pontian Johor- Malaysia,1.49458,103.43513,80006530,http://otp.transitos.io/otpws/api/cities/2/index/stops/1:80006530,0,
80006528,06528,Taman Desa Molek,Skudai Pontian Highway- Johor Pontian Johor- Malaysia,1.49162,103.43025,80006528,http://otp.transitos.io/otpws/api/cities/2/index/stops/1:80006528,0,
80011672,11672,TAMAN PONTIAN PERDANA,BA:TAMAN PONTIAN PERDANA,1.48928622389414,103.426285000068,80011672,http://otp.transitos.io/otpws/api/cities/2/index/stops/1:80011672,0,
80006525,06525,KAMPUNG PARIT KECHIL,Skudai Pontian Highway- Johor Pontian Johor- Malaysia,1.48731,103.42331,80006525,http://otp.transitos.io/otpws/api/cities/2/index/stops/1:80006525,0,
80000726,00726,Opp KILANG JCS,Skudai Pontian Highway- Johor Pontian Johor- Malaysia,1.48514,103.41979,80000726,http://otp.transitos.io/otpws/api/cities/2/index/stops/1:80000726,0,
80000727,00727,OPP KAMPUNG SUNGAI BUNYI PARIT HAJI ISMA,Skudai Pontian Highway- Johor Pontian Besar Johor- Malaysia,1.48408,103.41715,80000727,http://otp.transitos.io/otpws/api/cities/2/index/stops/1:80000727,0,
80011673,11673,Pertiwi Sejagat,BA:Pertiwi Sejagat,1.4837803300090813,103.41275813960598,80011673,http://otp.transitos.io/otpws/api/cities/2/index/stops/1:80011673,0,
80000679,00679,OPP Taman Impian Indah,Skudai Pontian Highway- Johor Jalan Parit Haji Yusoff Johor- Malaysia,1.48398,103.40909,80000679,http://otp.transitos.io/otpws/api/cities/2/index/stops/1:80000679,0,
80006521,06521,THE COOKIES FACTORY,Skudai Pontian Highway- Johor Pontian Besar Johor- Malaysia,1.48372,103.40597,80006521,http://otp.transitos.io/otpws/api/cities/2/index/stops/1:80006521,0,
80000660,00660,Petron Pontian,Skudai Pontian Highway- Johor Taman Pulai Utama- Malaysia Johor- Malaysia,1.48203,103.40266,80000660,http://otp.transitos.io/otpws/api/cities/2/index/stops/1:80000660,0,
80011674,11674,Opp JKR Pontian,BA:Opp JKR Pontian,1.4816767417498116,103.40122678495895,80011674,http://otp.transitos.io/otpws/api/cities/2/index/stops/1:80011674,0,
80011675,11675,JPN Pontian,BA:JPN Pontian,1.481066018296358,103.39912852293858,80011675,http://otp.transitos.io/otpws/api/cities/2/index/stops/1:80011675,0,
80006519,06519,Opp Econsave Pontian,Skudai Pontian Highway- Johor Pontian Johor- Malaysia,1.48038,103.39694,80006519,http://otp.transitos.io/otpws/api/cities/2/index/stops/1:80006519,0,
80011676,11676,Baitulmal Pontian,BA:Baitulmal Pontian,1.4786877901199673,103.39151496418721,80011676,http://otp.transitos.io/otpws/api/cities/2/index/stops/1:80011676,0,
80011677,11677,EcoShop Pontian,BA:EcoShop Pontian,1.4779716136769723,103.38856181230616,80011677,http://otp.transitos.io/otpws/api/cities/2/index/stops/1:80011677,0,
80000294,00294,Terminal Pontian,Jalan Delima- Johor Pontian Johor- Malaysia,1.47935,103.3883,80000294,http://otp.transitos.io/otpws/api/cities/2/index/stops/1:80000294,0,
80000674,00674,Econsave Pontian,Skudai Pontian Highway- Johor Lorong Mariam  Johor- Malaysia,1.48045,103.3967,80000674,http://otp.transitos.io/otpws/api/cities/2/index/stops/1:80000674,0,
80000661,00661,Opp Petron Pontian,Skudai Pontian Highway- Johor Pontian Johor- Malaysia,1.48236,103.40317,80000661,http://otp.transitos.io/otpws/api/cities/2/index/stops/1:80000661,0,
80006520,06520,Opp THE COOKIES FACTORY,Skudai Pontian Highway- Johor Pontian Besar Johor- Malaysia,1.48391,103.4059,80006520,http://otp.transitos.io/otpws/api/cities/2/index/stops/1:80006520,0,
80006524,06524,Taman Impian Indah,Skudai Pontian Highway- Johor Pontian Johor- Malaysia,1.48464,103.40949,80006524,http://otp.transitos.io/otpws/api/cities/2/index/stops/1:80006524,0,
80000680,00680,KAMPUNG SUNGAI BUNYI PARIT HAJI ISMAIL,Skudai Pontian Highway- Johor Kampung Kubor Johor- Malaysia,1.48416,103.41689,80000680,http://otp.transitos.io/otpws/api/cities/2/index/stops/1:80000680,0,
80006523,06523,KILANG JCS,Skudai Pontian Highway- Johor Pontian Johor- Malaysia,1.48545,103.41997,80006523,http://otp.transitos.io/otpws/api/cities/2/index/stops/1:80006523,0,
80006526,06526,Opp KAMPUNG PARIT KECHIL,Skudai Pontian Highway- Johor Pontian Johor- Malaysia,1.48728,103.42299,80006526,http://otp.transitos.io/otpws/api/cities/2/index/stops/1:80006526,0,
80000684,00684,OPP Taman Desa Molek,Skudai Pontian Highway- Johor Taman Sri Maju  Johor- Malaysia,1.4913,103.42947,80000684,http://otp.transitos.io/otpws/api/cities/2/index/stops/1:80000684,0,
80006531,06531,TAMAN MUTIARA (SMK TAN SRI OTHMAN MOHD S,Skudai Pontian Highway- Johor Pontian Johor- Malaysia,1.49441,103.43452,80006531,http://otp.transitos.io/otpws/api/cities/2/index/stops/1:80006531,0,
80006533,06533,SIMPANG PARIT HAJI OTHMAN,Skudai Pontian Highway- Johor Pontian Johor- Malaysia,1.5014,103.44292,80006533,http://otp.transitos.io/otpws/api/cities/2/index/stops/1:80006533,0,
80006535,06535,OPP Mardi Pontian,Skudai Pontian Highway- Johor Pontian Johor- Malaysia,1.5091,103.44479,80006535,http://otp.transitos.io/otpws/api/cities/2/index/stops/1:80006535,0,
80000688,00688,Kampung Parit Selangor,Skudai Pontian Highway- Johor Pontian Johor- Malaysia,1.51502,103.44786,80000688,http://otp.transitos.io/otpws/api/cities/2/index/stops/1:80000688,0,
80000689,00689,Kampung Selangor Baru,Skudai Pontian Highway- Johor Kampung Sawah Johor- Malaysia,1.51928,103.45294,80000689,http://otp.transitos.io/otpws/api/cities/2/index/stops/1:80000689,0,
80000690,00690,Bend Weld,Skudai Pontian Highway- Johor Kampung Sawah Johor- Malaysia,1.52509,103.46442,80000690,http://otp.transitos.io/otpws/api/cities/2/index/stops/1:80000690,0,
80000692,00692,Masjid Kampung Pengkalan Raja,Skudai Pontian Highway- Johor Kampung Sawah Johor- Malaysia,1.5246,103.47162,80000692,http://otp.transitos.io/otpws/api/cities/2/index/stops/1:80000692,0,
80000697,00697,GIATMARA TG Piai,Skudai Pontian Highway- Johor Kampung Sawah Johor- Malaysia,1.5107,103.49231,80000697,http://otp.transitos.io/otpws/api/cities/2/index/stops/1:80000697,0,
80000698,00698,Dewan Serbaguna Kg Parit Pasir Baru,Skudai Pontian Highway- Johor Taman Impian  Johor- Malaysia,1.50988,103.50274,80000698,http://otp.transitos.io/otpws/api/cities/2/index/stops/1:80000698,0,
80000699,00699,HENTIAN BAS JALAN BESAR,Skudai Pontian Highway- Johor Taman Impian Johor- Malaysia,1.50846,103.50888,80000699,http://otp.transitos.io/otpws/api/cities/2/index/stops/1:80000699,0,
80011667,11667,BSN Pekan Nenas,BA:BSN Pekan Nenas,1.50749,103.51247,80011667,http://otp.transitos.io/otpws/api/cities/2/index/stops/1:80011667,0,
80000700,00700,Opp MAYBANK PEKAN NENAS,Skudai Pontian Highway Pontian Johor- Malaysia,1.50321,103.51712,80000700,http://otp.transitos.io/otpws/api/cities/2/index/stops/1:80000700,0,
80008542,08542,PULAI HIJAUAN,BA:PULAI HIJAUAN,1.55986,103.57625,80008542,http://otp.transitos.io/otpws/api/cities/2/index/stops/1:80008542,0,
80011661,11661,Petronas Pulai Perdana 2,BA:Petronas Pulai Perdana 2,1.567255978887001,103.59506634710323,80011661,http://otp.transitos.io/otpws/api/cities/2/index/stops/1:80011661,0,
80004419,04419,Opp Arked Pulai Perdana,Skudai Pontian Highway- Malaysia Taman Sri Pulai- Malaysia johor,1.56517,103.61347,80004419,http://otp.transitos.io/otpws/api/cities/2/index/stops/1:80004419,0,
80004420,04420,Opp Taman Sri Pulai (Lebuhraya Skudai - ,Skudai Pontian Highway- Malaysia Taman Sri Pulai- Malaysia johor,1.5627,103.61757,80004420,http://otp.transitos.io/otpws/api/cities/2/index/stops/1:80004420,0,